,Unnamed: 0,Name,City,CuisineStyle,Ranking,Rating,PriceRange,NumberofReviews,Reviews,URL_TA,ID_TA,lat,lng
0,0,Martine of Martine's Table,Amsterdam,"['French', 'Dutch', 'European']",1.0,5.0,$$ - $$$,136.0,"[['Just like home', 'A Warm Welcome to Wintry Amsterdam'], ['01/03/2018', '01/01/2018']]",/Restaurant_Review-g188590-d11752080-Reviews-Martine_of_Martine_s_Table-Amsterdam_North_Holland_Province.html,d11752080,52.37501,4.89992
1,1,De Silveren Spiegel,Amsterdam,"['Dutch', 'European', 'Vegetarian Friendly', 'Gluten Free Options']",2.0,4.5,$$$$,812.0,"[['Great food and staff', 'just perfect'], ['01/06/2018', '01/04/2018']]",/Restaurant_Review-g188590-d693419-Reviews-De_Silveren_Spiegel-Amsterdam_North_Holland_Province.html,d693419,52.37775,4.89422
2,2,La Rive,Amsterdam,"['Mediterranean', 'French', 'International', 'European', 'Vegetarian Friendly', 'Vegan Options']",3.0,4.5,$$$$,567.0,"[['Satisfaction', 'Delicious old school restaurant'], ['01/04/2018', '01/04/2018']]",/Restaurant_Review-g188590-d696959-Reviews-La_Rive-Amsterdam_North_Holland_Province.html,d696959,52.36002,4.90546
3,3,Vinkeles,Amsterdam,"['French', 'European', 'International', 'Contemporary', 'Vegetarian Friendly', 'Vegan Options', 'Gluten Free Options']",4.0,5.0,$$$$,564.0,"[['True five star dinner', 'A superb evening of fine dining, hospitali...'], ['12/20/2017', '12/17/2017']]",/Restaurant_Review-g188590-d1239229-Reviews-Vinkeles-Amsterdam_North_Holland_Province.html,d1239229,52.36927,4.88434
4,4,Librije's Zusje Amsterdam,Amsterdam,"['Dutch', 'European', 'International', 'Vegetarian Friendly', 'Vegan Options', 'Gluten Free Options']",5.0,4.5,$$$$,316.0,"[['Best meal.... EVER', 'super food experience'], ['01/06/2018', '01/04/2018']]",/Restaurant_Review-g188590-d6864170-Reviews-Librije_s_Zusje_Amsterdam-Amsterdam_North_Holland_Province.html,d6864170,52.36488,4.8974
5,5,Ciel Bleu Restaurant,Amsterdam,"['Contemporary', 'International', 'Vegetarian Friendly', 'Vegan Options', 'Gluten Free Options']",6.0,4.5,$$$$,745.0,"[['A treat!', 'Wow just Wow'], ['01/01/2018', '12/26/2017']]",/Restaurant_Review-g188590-d696902-Reviews-Ciel_Bleu_Restaurant-Amsterdam_North_Holland_Province.html,d696902,52.34859,4.89347
6,6,Zaza's,Amsterdam,"['French', 'International', 'Mediterranean', 'European', 'Vegetarian Friendly', 'Vegan Options', 'Gluten Free Options']",7.0,4.5,$$ - $$$,1455.0,"[['40th Birthday with my Family', 'One of the best meals ever!'], ['01/07/2018', '01/05/2018']]",/Restaurant_Review-g188590-d1014732-Reviews-Zaza_s-Amsterdam_North_Holland_Province.html,d1014732,52.37043,4.89526
7,7,Blue Pepper Restaurant And Candlelight Cruises,Amsterdam,"['Asian', 'Indonesian', 'Vegetarian Friendly', 'Vegan Options', 'Gluten Free Options']",8.0,4.5,$$$$,675.0,"[['Great Experience', 'A true delight'], ['01/08/2018', '01/07/2018']]",/Restaurant_Review-g188590-d697058-Reviews-Blue_Pepper_Restaurant_And_Candlelight_Cruises-Amsterdam_North_Holland_Province.html,d697058,52.36585,4.87823
8,8,Teppanyaki Restaurant Sazanka,Amsterdam,"['Japanese', 'Asian', 'Vegetarian Friendly', 'Vegan Options', 'Gluten Free Options']",9.0,4.5,$$$$,923.0,"[['Great Food & Service!', 'Superior food and exciting setting around...'], ['12/30/2017', '12/29/2017']]",/Restaurant_Review-g188590-d697009-Reviews-Teppanyaki_Restaurant_Sazanka-Amsterdam_North_Holland_Province.html,d697009,52.34859,4.89347
9,9,Rob Wigboldus Vishandel,Amsterdam,"['Dutch', 'Seafood', 'Fast Food']",10.0,4.5,$,450.0,"[['Excellent Herring', 'Lovely, rustic fish shop in the smack of A...'], ['01/09/2018', '01/06/2018']]",/Restaurant_Review-g188590-d1955652-Reviews-Rob_Wigboldus_Vishandel-Amsterdam_North_Holland_Province.html,d1955652,52.37415,4.89384
10,10,The Happy Bull,Amsterdam,"['American', 'Bar', 'European', 'Vegetarian Friendly', 'Gluten Free Options']",11.0,4.5,$$ - $$$,295.0,"[['Simply AMAZING!', 'Delicious Burgers'], ['01/01/2018', '11/22/2017']]",/Restaurant_Review-g188590-d10275170-Reviews-The_Happy_Bull-Amsterdam_North_Holland_Province.html,d10275170,52.35101,4.85168
11,11,Gartine,Amsterdam,"['French', 'Dutch', 'International', 'European', 'Vegetarian Friendly', 'Vegan Options', 'Gluten Free Options']",12.0,4.5,$$ - $$$,967.0,"[['A hidden gem', 'Fantastic!'], ['01/06/2018', '01/05/2018']]",/Restaurant_Review-g188590-d1014753-Reviews-Gartine-Amsterdam_North_Holland_Province.html,d1014753,52.36922,4.89169
12,12,Restaurant Adam,Amsterdam,"['French', 'European', 'Central European', 'Vegetarian Friendly', 'Vegan Options', 'Gluten Free Options']",13.0,4.5,$$$$,368.0,"[['Love it!', 'As pure as Paradise: Adam!'], ['01/10/2018', '12/18/2017']]",/Restaurant_Review-g188590-d7695005-Reviews-Restaurant_Adam-Amsterdam_North_Holland_Province.html,d7695005,52.38394,4.90298
13,13,Biercafe Gollem,Amsterdam,"['Bar', 'Pub']",14.0,4.5,$$ - $$$,586.0,"[['Awesome little pub', 'An amazing little place with a vast choice...'], ['12/17/2017', '12/13/2017']]",/Restaurant_Review-g188590-d3893242-Reviews-Biercafe_Gollem-Amsterdam_North_Holland_Province.html,d3893242,52.35617,4.89081
14,14,Restaurant Daalder,Amsterdam,"['French', 'Dutch', 'International', 'European', 'Vegetarian Friendly', 'Vegan Options', 'Gluten Free Options']",15.0,4.5,$$$$,1246.0,"[['Best meal of our trip', 'It was like falling in love..'], ['01/09/2018', '01/07/2018']]",/Restaurant_Review-g188590-d1408533-Reviews-Restaurant_Daalder-Amsterdam_North_Holland_Province.html,d1408533,52.38044,4.88552
15,15,Greenwoods Keizersgracht,Amsterdam,"['Dutch', 'Cafe', 'European', 'British', 'Vegetarian Friendly', 'Vegan Options', 'Gluten Free Options']",16.0,4.5,$$ - $$$,1391.0,"[['So. Much. Food', 'Hidden Gem'], ['01/10/2018', '01/10/2018']]",/Restaurant_Review-g188590-d3200493-Reviews-Greenwoods_Keizersgracht-Amsterdam_North_Holland_Province.html,d3200493,52.3659,4.88692
16,16,Omelegg - City Centre,Amsterdam,"['Dutch', 'European', 'Healthy', 'International', 'Vegetarian Friendly', 'Gluten Free Options']",17.0,4.5,$,1633.0,"[['Brunch', 'Worth the wait!'], ['01/09/2018', '01/08/2018']]",/Restaurant_Review-g188590-d8562698-Reviews-Omelegg_City_Centre-Amsterdam_North_Holland_Province.html,d8562698,52.37606,4.89985
17,17,Brasserie Ambassade,Amsterdam,"['French', 'Bar', 'International', 'European', 'Seafood', 'Vegetarian Friendly', 'Gluten Free Options']",18.0,4.5,$$$$,958.0,"[['Wonderful Christmas dinner', 'Fantastic restaurant with impeccable servi...'], ['01/08/2018', '01/08/2018']]",/Restaurant_Review-g188590-d8567150-Reviews-Brasserie_Ambassade-Amsterdam_North_Holland_Province.html,d8567150,52.36952,4.88707
18,18,Sherpa Restaurant,Amsterdam,"['Indian', 'Tibetan', 'Nepali', 'Vegetarian Friendly', 'Vegan Options', 'Gluten Free Options']",19.0,4.5,$$ - $$$,426.0,"[['Very good tibetan and indian food', 'Wonderful meal'], ['01/06/2018', '01/06/2018']]",/Restaurant_Review-g188590-d6022573-Reviews-Sherpa_Restaurant-Amsterdam_North_Holland_Province.html,d6022573,52.36316,4.88485
19,19,La Maschera Lillotatini,Amsterdam,"['Italian', 'Mediterranean', 'European', 'Vegetarian Friendly']",20.0,4.5,$$ - $$$,421.0,"[['Fabulous Italian Food', 'One of the best meals of my life!'], ['01/08/2018', '01/01/2018']]",/Restaurant_Review-g188590-d10071792-Reviews-La_Maschera_Lillotatini-Amsterdam_North_Holland_Province.html,d10071792,52.37777,4.88149
20,20,Senses Restaurant,Amsterdam,"['International', 'European']",21.0,4.5,$$$$,1380.0,"[['Always A Special Experience', 'Excellent'], ['01/05/2018', '12/23/2017']]",/Restaurant_Review-g188590-d3589045-Reviews-Senses_Restaurant-Amsterdam_North_Holland_Province.html,d3589045,52.36589,4.89312
21,21,MOS Amsterdam,Amsterdam,"['French', 'Dutch', 'Seafood', 'European', 'International', 'Vegetarian Friendly', 'Gluten Free Options']",22.0,4.5,$$$$,239.0,"[['Amazing Place', 'Four course feast!'], ['01/09/2018', '12/14/2017']]",/Restaurant_Review-g188590-d8528923-Reviews-MOS_Amsterdam-Amsterdam_North_Holland_Province.html,d8528923,52.39135,4.91217
22,22,Restaurant Vlaming,Amsterdam,"['Dutch', 'European', 'International', 'Vegetarian Friendly', 'Vegan Options', 'Gluten Free Options']",23,4.5,$$ - $$$,996,"[['nice', 'Review of vlaming'], ['01/07/2018', '12/23/2017']]",/Restaurant_Review-g188590-d2213743-Reviews-Restaurant_Vlaming-Amsterdam_North_Holland_Province.html,d2213743,52.34038,4.89245
23,23,Arendsnest Dutch Beer Bar,Amsterdam,"['Dutch', 'Bar', 'Pub']",24,4.5,,716,"[[""It's a definitive must visit for beer enth..."", 'Great Beer in a cozy little spot'], ['01/04/2018', '01/02/2018']]",/Restaurant_Review-g188590-d7139546-Reviews-Arendsnest_Dutch_Beer_Bar-Amsterdam_North_Holland_Province.html,d7139546,52.37665,4.88936
24,24,Jacketz,Amsterdam,"['Dutch', 'European', 'Central European', 'Vegetarian Friendly', 'Vegan Options', 'Gluten Free Options']",25,4.5,$$ - $$$,1958,"[['Excellent quality baked potato', 'AMZING !!'], ['01/03/2018', '01/01/2018']]",/Restaurant_Review-g188590-d7003171-Reviews-Jacketz-Amsterdam_North_Holland_Province.html,d7003171,52.3782,4.89549
25,25,Greenwoods Singel,Amsterdam,"['Cafe', 'European', 'British', 'Vegetarian Friendly', 'Vegan Options', 'Gluten Free Options']",26,4.5,$$ - $$$,2360,"[['Great Breakfast', 'Amazing food !'], ['01/05/2018', '01/02/2018']]",/Restaurant_Review-g188590-d1309073-Reviews-Greenwoods_Singel-Amsterdam_North_Holland_Province.html,d1309073,52.37586,4.89115
26,26,Bord'Eau,Amsterdam,"['French', 'International', 'European', 'Vegetarian Friendly', 'Gluten Free Options']",27,4.5,$$$$,666,"[['One of the best restaurants in Europe', 'Amazing food, marred by chaotic service'], ['01/08/2018', '01/01/2018']]",/Restaurant_Review-g188590-d2315768-Reviews-Bord_Eau-Amsterdam_North_Holland_Province.html,d2315768,52.36773,4.89424
27,27,Omelegg - De Pijp,Amsterdam,"['Dutch', 'Cafe', 'European', 'Healthy', 'Central European', 'International', 'Vegetarian Friendly', 'Vegan Options', 'Gluten Free Options']",28,4.5,$,1642,"[['BEST BREAKFAST', 'Amazing breakfast üòç'], ['01/01/2018', '12/30/2017']]",/Restaurant_Review-g188590-d4177229-Reviews-Omelegg_De_Pijp-Amsterdam_North_Holland_Province.html,d4177229,52.35171,4.89143
28,28,Harmsen,Amsterdam,"['Dutch', 'European', 'International', 'Vegetarian Friendly', 'Vegan Options', 'Gluten Free Options']",29,4.5,$$ - $$$,344,"[['Last night in Amsterdam', 'Definitely will return'], ['01/08/2018', '01/07/2018']]",/Restaurant_Review-g188590-d1504781-Reviews-Harmsen-Amsterdam_North_Holland_Province.html,d1504781,52.36417,4.89814
29,29,Brasserie SenT,Amsterdam,"['Barbecue', 'French', 'Steakhouse', 'European', 'International', 'Vegetarian Friendly', 'Gluten Free Options']",30,4.5,$$ - $$$,646,"[['except;;ent', 'These people know what they are doing!'], ['01/07/2018', '01/07/2018']]",/Restaurant_Review-g188590-d3198485-Reviews-Brasserie_SenT-Amsterdam_North_Holland_Province.html,d3198485,52.35572,4.8889
30,30,MAX Amsterdam,Amsterdam,"['European', 'Contemporary', 'Indonesian', 'International', 'Vegetarian Friendly', 'Vegan Options', 'Gluten Free Options']",31,4.5,$$ - $$$,1869,"[['Our Must-Do', 'Great Indonesian Fusion'], ['01/08/2018', '01/03/2018']]",/Restaurant_Review-g188590-d2292732-Reviews-MAX_Amsterdam-Amsterdam_North_Holland_Province.html,d2292732,52.39151,4.93028
31,31,Restaurant Argentino Luna,Amsterdam,"['Steakhouse', 'Latin', 'Barbecue', 'Argentinean', 'South American', 'Gluten Free Options']",32,4.5,$$ - $$$,821,"[['Excellent', 'Great little find'], ['01/07/2018', '01/06/2018']]",/Restaurant_Review-g188590-d2072803-Reviews-Restaurant_Argentino_Luna-Amsterdam_North_Holland_Province.html,d2072803,52.37203,4.89526
32,32,Lombardo's,Amsterdam,"['Barbecue', 'American', 'Grill', 'Delicatessen']",33,4.5,$$ - $$$,2052,"[['Best burger in the world so far', 'How burgers should be!'], ['01/07/2018', '01/07/2018']]",/Restaurant_Review-g188590-d2265132-Reviews-Lombardo_s-Amsterdam_North_Holland_Province.html,d2265132,52.36352,4.88877
33,33,Midtown Grill,Amsterdam,"['Barbecue', 'American', 'Steakhouse', 'European']",34,4.5,$$$$,1181,"[['Mouthwatering dry aged heavenlyness', 'Great food'], ['01/09/2018', '01/09/2018']]",/Restaurant_Review-g188590-d2006595-Reviews-Midtown_Grill-Amsterdam_North_Holland_Province.html,d2006595,52.36265,4.88045
34,34,Eatmosfera Ristorante,Amsterdam,"['Italian', 'Pizza', 'Mediterranean', 'Vegetarian Friendly', 'Vegan Options', 'Gluten Free Options']",35,4.5,$$ - $$$,973,"[['Great authentic Italian food', 'The food tasted great, but they were not v...'], ['01/09/2018', '01/01/2018']]",/Restaurant_Review-g188590-d4203545-Reviews-Eatmosfera_Ristorante-Amsterdam_North_Holland_Province.html,d4203545,52.36604,4.89513
35,35,Broodje Bert,Amsterdam,"['Dutch', 'Cafe', 'European', 'Vegetarian Friendly', 'Vegan Options']",36,4.5,$,685,"[['5*', 'Best Desserts ever'], ['12/28/2017', '12/22/2017']]",/Restaurant_Review-g188590-d1503783-Reviews-Broodje_Bert-Amsterdam_North_Holland_Province.html,d1503783,52.36988,4.88833
36,36,Jacketz Nieuwendijk,Amsterdam,"['Dutch', 'European', 'Vegetarian Friendly', 'Vegan Options', 'Gluten Free Options']",37,4.5,$,264,"[['The King of potatoes', '10/10'], ['01/07/2018', '12/18/2017']]",/Restaurant_Review-g188590-d12341057-Reviews-Jacketz_Nieuwendijk-Amsterdam_North_Holland_Province.html,d12341057,52.3782,4.89549
37,37,Toastable Nieuwendijk,Amsterdam,"['Dutch', 'Cafe', 'European', 'Vegetarian Friendly', 'Vegan Options', 'Gluten Free Options']",38,4.5,$,308,"[[""Very filling, I'd definitely come back"", 'Delicious food great value!'], ['01/07/2018', '01/06/2018']]",/Restaurant_Review-g188590-d8715527-Reviews-Toastable_Nieuwendijk-Amsterdam_North_Holland_Province.html,d8715527,52.37877,4.8948
38,38,Tales and Spirits,Amsterdam,"['Bar', 'European', 'International', 'Vegetarian Friendly']",39,4.5,$$ - $$$,697,"[['Great Old Fashioned', 'The best cocktails!'], ['01/06/2018', '01/03/2018']]",/Restaurant_Review-g188590-d3657552-Reviews-Tales_and_Spirits-Amsterdam_North_Holland_Province.html,d3657552,52.37614,4.89183
39,39,Krua Thai Classic Restaurant,Amsterdam,"['Asian', 'Thai', 'Vegetarian Friendly', 'Vegan Options', 'Gluten Free Options']",40,4.5,$$ - $$$,465,"[['Busy place with tasty Thai food and new fo...', 'Nice Thai restaurant in Amsterdam'], ['01/06/2018', '01/01/2018']]",/Restaurant_Review-g188590-d1776852-Reviews-Krua_Thai_Classic_Restaurant-Amsterdam_North_Holland_Province.html,d1776852,52.3682,4.89794
40,40,Bussia,Amsterdam,"['Italian', 'European', 'Vegetarian Friendly', 'Gluten Free Options']",41,4.5,$$$$,959,"[['What an unexpectedly great end of a long d...', 'Excellent tasting menu'], ['01/02/2018', '01/01/2018']]",/Restaurant_Review-g188590-d1229275-Reviews-Bussia-Amsterdam_North_Holland_Province.html,d1229275,52.37238,4.88408
41,41,Ashoka Restaurant,Amsterdam,"['Indian', 'Nepali', 'Vegetarian Friendly', 'Vegan Options', 'Gluten Free Options']",42,4.5,$$ - $$$,718,"[['Perfect!', 'Excellent service!'], ['01/09/2018', '01/08/2018']]",/Restaurant_Review-g188590-d4328782-Reviews-Ashoka_Restaurant-Amsterdam_North_Holland_Province.html,d4328782,52.37719,4.89411
42,42,The Seafood Bar,Amsterdam,"['Seafood', 'European', 'Soups', 'Gluten Free Options']",43,4.5,$$ - $$$,4709,"[['Tasty fish and generous portions', 'Excellent'], ['01/09/2018', '01/09/2018']]",/Restaurant_Review-g188590-d3323106-Reviews-The_Seafood_Bar-Amsterdam_North_Holland_Province.html,d3323106,52.35644,4.89058
43,43,Mossel en Gin,Amsterdam,"['Dutch', 'Seafood', 'International']",44,4.5,$$ - $$$,408,"[['Suprised good food and service', 'Incredible Seafood and fantastic atmospher...'], ['01/03/2018', '12/22/2017']]",/Restaurant_Review-g188590-d6649841-Reviews-Mossel_en_Gin-Amsterdam_North_Holland_Province.html,d6649841,52.38637,4.86806
44,44,Frens Haringhandel,Amsterdam,"['Dutch', 'Delicatessen', 'Healthy', 'Street Food', 'Seafood']",45,4.5,$,431,"[['Great!', 'Traditional haring dish.'], ['01/05/2018', '01/01/2018']]",/Restaurant_Review-g188590-d3626201-Reviews-Frens_Haringhandel-Amsterdam_North_Holland_Province.html,d3626201,52.36741,4.88916
45,45,Ivy & Bros,Amsterdam,"['Cafe', 'European', 'Soups', 'Vegetarian Friendly', 'Vegan Options', 'Gluten Free Options']",46,4.5,$,757,"[['Perfect Lunch Spot in Amsterdam', 'Unexpected treat next to red light distric...'], ['01/08/2018', '01/08/2018']]",/Restaurant_Review-g188590-d7285568-Reviews-Ivy_Bros-Amsterdam_North_Holland_Province.html,d7285568,52.37347,4.89757
46,46,B&B Lunchroom Leidsestraat,Amsterdam,"['Dutch', 'Cafe', 'European', 'Vegetarian Friendly', 'Vegan Options']",47,4.5,$,403,"[['Delicious', 'Best sandwich ever!'], ['12/30/2017', '12/08/2017']]",/Restaurant_Review-g188590-d1649973-Reviews-B_B_Lunchroom_Leidsestraat-Amsterdam_North_Holland_Province.html,d1649973,52.36572,4.88594
47,47,Toastable Koningsplein,Amsterdam,"['Cafe', 'European', 'Vegetarian Friendly', 'Vegan Options', 'Gluten Free Options']",48,4.5,$,781,"[['Ace Toasties', 'Delicious'], ['12/31/2017', '12/17/2017']]",/Restaurant_Review-g188590-d3733326-Reviews-Toastable_Koningsplein-Amsterdam_North_Holland_Province.html,d3733326,52.36729,4.89029
48,48,Nader Grill Steakhouse,Amsterdam,"['Steakhouse', 'Barbecue', 'European', 'Grill', 'Vegetarian Friendly']",49,4.5,$$ - $$$,187,"[['Very good!', 'Lovely'], ['01/09/2018', '01/09/2018']]",/Restaurant_Review-g188590-d10461623-Reviews-Nader_Grill_Steakhouse-Amsterdam_North_Holland_Province.html,d10461623,52.36497,4.88613
49,49,Piadina Bar,Amsterdam,"['Italian', 'Bar', 'Cafe', 'Mediterranean', 'European', 'Vegetarian Friendly', 'Vegan Options', 'Gluten Free Options']",50,4.5,$,508,"[['Tasty and healthy', 'Amazing christina'], ['12/09/2017', '12/07/2017']]",/Restaurant_Review-g188590-d8709498-Reviews-Piadina_Bar-Amsterdam_North_Holland_Province.html,d8709498,52.3579,4.89317
50,50,Mook Pancakes,Amsterdam,"['Dutch', 'European']",51,4.5,$$ - $$$,681,"[['Great!', 'Our Favourite!'], ['01/07/2018', '01/05/2018']]",/Restaurant_Review-g188590-d9796658-Reviews-Mook_Pancakes-Amsterdam_North_Holland_Province.html,d9796658,52.37122,4.87132
51,51,Van Kerkwijk,Amsterdam,"['Dutch', 'European', 'Diner', 'Vegetarian Friendly', 'Vegan Options', 'Gluten Free Options']",52,4.5,$$ - $$$,1995,"[['Like them very much!!!', 'Two trips to Amsterdam and four dinners at...'], ['01/09/2018', '01/08/2018']]",/Restaurant_Review-g188590-d697045-Reviews-Van_Kerkwijk-Amsterdam_North_Holland_Province.html,d697045,52.37155,4.8936
52,52,d&a hummus bistro,Amsterdam,"['Mediterranean', 'Healthy', 'Street Food', 'Lebanese', 'Middle Eastern', 'Israeli', 'Vegetarian Friendly', 'Vegan Options', 'Gluten Free Options']",53,4.5,$$ - $$$,414,"[['Amazing!', 'Good food and service'], ['12/31/2017', '12/28/2017']]",/Restaurant_Review-g188590-d8092753-Reviews-D_a_hummus_bistro-Amsterdam_North_Holland_Province.html,d8092753,52.37836,4.88281
53,53,De Kas,Amsterdam,"['Dutch', 'European', 'Vegetarian Friendly', 'Vegan Options', 'Gluten Free Options']",54,4.5,$$$$,1573,"[['If only all could work this way...', 'A new experience'], ['12/28/2017', '12/27/2017']]",/Restaurant_Review-g188590-d696917-Reviews-De_Kas-Amsterdam_North_Holland_Province.html,d696917,52.35247,4.93029
54,54,Eetcafe Singel 404,Amsterdam,"['Dutch', 'Cafe', 'European', 'Soups', 'Vegetarian Friendly', 'Vegan Options', 'Gluten Free Options']",55,4.5,$,490,"[['Amazing spot', 'Cozy, warm and delicious food!'], ['01/05/2018', '12/30/2017']]",/Restaurant_Review-g188590-d1319323-Reviews-Eetcafe_Singel_404-Amsterdam_North_Holland_Province.html,d1319323,52.36897,4.88756
55,55,De Struisvogel,Amsterdam,"['French', 'Dutch', 'European', 'Vegetarian Friendly', 'Vegan Options', 'Gluten Free Options']",56,4.5,$$ - $$$,517,"[['Best meal in Amsterdam', 'A great find'], ['01/07/2018', '01/01/2018']]",/Restaurant_Review-g188590-d2082910-Reviews-De_Struisvogel-Amsterdam_North_Holland_Province.html,d2082910,52.37049,4.88446
56,56,Restaurant Johannes,Amsterdam,"['French', 'European', 'International', 'Vegetarian Friendly', 'Gluten Free Options']",57,4.5,$$$$,1065,"[['Unique, Inspired, Exceeded All Expectation...', 'Best restaurant in Amsterdam'], ['12/29/2017', '12/21/2017']]",/Restaurant_Review-g188590-d5971541-Reviews-Restaurant_Johannes-Amsterdam_North_Holland_Province.html,d5971541,52.36759,4.88724
57,57,The Seafood Bar Ferdinand Bol,Amsterdam,"['Seafood', 'European', 'Gluten Free Options']",58,4.5,$$ - $$$,348,"[['Yum!', 'Fresh seafood!'], ['01/08/2018', '01/07/2018']]",/Restaurant_Review-g188590-d10214338-Reviews-The_Seafood_Bar_Ferdinand_Bol-Amsterdam_North_Holland_Province.html,d10214338,52.35644,4.89058
58,58,Guts & Glory,Amsterdam,"['International', 'European', 'Vegetarian Friendly']",59,4.5,$$ - $$$,555,"[['Superb!', 'Super food, super nice staff'], ['01/04/2018', '01/03/2018']]",/Restaurant_Review-g188590-d7689983-Reviews-Guts_Glory-Amsterdam_North_Holland_Province.html,d7689983,52.36566,4.89766
59,59,Thai Phutakun,Amsterdam,"['Asian', 'Thai', 'Vegetarian Friendly', 'Vegan Options', 'Gluten Free Options']",60,4.5,$$ - $$$,530,"[['Perfect', 'Very good food and service'], ['12/28/2017', '12/23/2017']]",/Restaurant_Review-g188590-d3589514-Reviews-Thai_Phutakun-Amsterdam_North_Holland_Province.html,d3589514,52.3669,4.88916
60,60,Bakers & Roasters,Amsterdam,"['New Zealand', 'Cafe', 'European', 'Contemporary', 'Vegetarian Friendly', 'Vegan Options', 'Gluten Free Options']",61,4.5,$$ - $$$,1091,"[['Great place for breakfast', 'Great food, attentive service, big queues'], ['01/09/2018', '01/07/2018']]",/Restaurant_Review-g188590-d4173529-Reviews-Bakers_Roasters-Amsterdam_North_Holland_Province.html,d4173529,52.37028,4.91272
61,61,FuLu Mandarijn Amsterdam,Amsterdam,"['Chinese', 'Asian', 'Vegetarian Friendly', 'Vegan Options', 'Gluten Free Options']",62,4.5,$$ - $$$,1801,"[['Delicious!!', 'New year dinner'], ['01/09/2018', '01/06/2018']]",/Restaurant_Review-g188590-d6418254-Reviews-FuLu_Mandarijn_Amsterdam-Amsterdam_North_Holland_Province.html,d6418254,52.37169,4.89288
62,62,Pesca,Amsterdam,"['Dutch', 'Seafood', 'Mediterranean', 'Gluten Free Options']",63,4.5,$$ - $$$,756,"[['Unique concept, delicious fish and wine in...', 'Fresh seafood'], ['01/08/2018', '01/06/2018']]",/Restaurant_Review-g188590-d10247215-Reviews-Pesca-Amsterdam_North_Holland_Province.html,d10247215,52.37291,4.87875
63,63,De Reiger,Amsterdam,"['Dutch', 'Bar', 'European', 'Vegetarian Friendly', 'Vegan Options', 'Gluten Free Options']",64,4.5,$$ - $$$,530,"[['Fantastic atmosphere food beer and service', 'The food is wonderful but Annelaine is the...'], ['01/07/2018', '12/28/2017']]",/Restaurant_Review-g188590-d1232530-Reviews-De_Reiger-Amsterdam_North_Holland_Province.html,d1232530,52.37332,4.87013
64,64,The Pantry,Amsterdam,"['Dutch', 'European', 'Central European', 'Vegetarian Friendly', 'Vegan Options', 'Gluten Free Options']",65,4.5,$$ - $$$,2428,"[['Authentic food, but geared to tourists', 'Authentic and friendly'], ['01/08/2018', '01/06/2018']]",/Restaurant_Review-g188590-d697036-Reviews-The_Pantry-Amsterdam_North_Holland_Province.html,d697036,52.36349,4.8849
65,65,C,Amsterdam,"['International', 'European', 'Vegetarian Friendly', 'Gluten Free Options', 'Vegan Options']",66,4.5,$$$$,289,"[['So fantastic', 'Great lunch at C!'], ['01/01/2018', '12/28/2017']]",/Restaurant_Review-g188590-d8669871-Reviews-C-Amsterdam_North_Holland_Province.html,d8669871,60.18716,18.35445
66,66,The Lobby Nesplein Restaurant & Bar,Amsterdam,"['Dutch', 'European', 'International', 'Vegetarian Friendly', 'Vegan Options', 'Gluten Free Options']",67,4.5,$$ - $$$,838,"[['Favourite local restaurant', 'So worth it!'], ['01/08/2018', '01/06/2018']]",/Restaurant_Review-g188590-d4007711-Reviews-The_Lobby_Nesplein_Restaurant_Bar-Amsterdam_North_Holland_Province.html,d4007711,52.37094,4.89356
67,67,Hap-Hmm,Amsterdam,"['Dutch', 'European', 'Vegetarian Friendly']",68,4.5,$,510,"[['Hole in wall with great food!', 'Very good traditional dutch food'], ['12/04/2017', '11/28/2017']]",/Restaurant_Review-g188590-d2076109-Reviews-Hap_Hmm-Amsterdam_North_Holland_Province.html,d2076109,52.36371,4.87605
68,68,The Seafood Bar Spui,Amsterdam,"['Seafood', 'European', 'Gluten Free Options']",69,4.5,$$ - $$$,1209,"[['Delicous Food....Great Team', 'Oysters and champagne'], ['01/06/2018', '01/06/2018']]",/Restaurant_Review-g188590-d7837439-Reviews-The_Seafood_Bar_Spui-Amsterdam_North_Holland_Province.html,d7837439,52.36885,4.89054
69,69,La Zoccola del Pacioccone Pizzeria,Amsterdam,"['Italian', 'Pizza', 'Mediterranean', 'European', 'Vegetarian Friendly', 'Vegan Options']",70,4.5,$$ - $$$,1098,"[['Small but Perfectly Formed', 'Good Pizza'], ['01/08/2018', '01/08/2018']]",/Restaurant_Review-g188590-d8021047-Reviews-La_Zoccola_del_Pacioccone_Pizzeria-Amsterdam_North_Holland_Province.html,d8021047,52.37533,4.89387
70,70,JUN Indonesian Cuisine,Amsterdam,"['Asian', 'Indonesian', 'Vegetarian Friendly', 'Vegan Options']",71,4.5,$$ - $$$,416,"[['Excellent Indonesian', 'Delicious flavours, friendly staff'], ['12/18/2017', '12/11/2017']]",/Restaurant_Review-g188590-d4703686-Reviews-JUN_Indonesian_Cuisine-Amsterdam_North_Holland_Province.html,d4703686,52.37584,4.87339
71,71,Sugo Amsterdam,Amsterdam,"['Pizza', 'Italian', 'Mediterranean', 'European', 'Vegetarian Friendly', 'Vegan Options']",72,4.5,$,445,"[['Good food and Fast Service', 'Great little place for family lunch'], ['01/04/2018', '01/03/2018']]",/Restaurant_Review-g188590-d8852649-Reviews-Sugo_Amsterdam-Amsterdam_North_Holland_Province.html,d8852649,52.35304,4.89103
72,72,Burger Bar,Amsterdam,"['American', 'Bar', 'Fast Food']",73,4.5,$,748,"[['Perfect burger bar', 'Best burgers !!!'], ['01/09/2018', '01/02/2018']]",/Restaurant_Review-g188590-d2340111-Reviews-Burger_Bar-Amsterdam_North_Holland_Province.html,d2340111,52.35515,4.89327
73,73,Restaurant BREDA,Amsterdam,"['French', 'Dutch', 'European', 'International', 'Vegetarian Friendly', 'Gluten Free Options']",74,4.5,$$ - $$$,331,"[['Delicious and great menu', 'Service + food shine here'], ['01/06/2018', '12/22/2017']]",/Restaurant_Review-g188590-d8734317-Reviews-Restaurant_BREDA-Amsterdam_North_Holland_Province.html,d8734317,52.3738,4.88875
74,74,Hemelse Modder,Amsterdam,"['Dutch', 'European', 'Vegetarian Friendly', 'Vegan Options', 'Gluten Free Options']",75,4.5,$$ - $$$,562,"[['Exquisite quality all round', 'Great food and not a tourist trap!'], ['12/28/2017', '12/27/2017']]",/Restaurant_Review-g188590-d696942-Reviews-Hemelse_Modder-Amsterdam_North_Holland_Province.html,d696942,52.37321,4.90357
75,75,Prins Heerlijk,Amsterdam,"['Dutch', 'Cafe', 'International', 'European', 'Vegetarian Friendly', 'Vegan Options']",76,4.5,$,425,"[['Breakfast all day!!', 'Breakfast & Coffee'], ['01/09/2018', '01/03/2018']]",/Restaurant_Review-g188590-d2060174-Reviews-Prins_Heerlijk-Amsterdam_North_Holland_Province.html,d2060174,52.37642,4.89992
76,76,Taj Indian,Amsterdam,"['Indian', 'Asian', 'Vegetarian Friendly', 'Vegan Options', 'Gluten Free Options']",77,4.5,$$ - $$$,1415,"[['Amazing', 'Best Indian food ever!'], ['01/08/2018', '01/03/2018']]",/Restaurant_Review-g188590-d2690449-Reviews-Taj_Indian-Amsterdam_North_Holland_Province.html,d2690449,52.35734,4.89101
77,77,Bistrot Neuf Amsterdam,Amsterdam,"['French', 'European', 'Vegetarian Friendly']",78,4.5,$$ - $$$,546,"[['Special ‚ÄúSpecials‚Äù', 'First time and very memerable'], ['12/17/2017', '12/13/2017']]",/Restaurant_Review-g188590-d2054448-Reviews-Bistrot_Neuf_Amsterdam-Amsterdam_North_Holland_Province.html,d2054448,52.37935,4.89398
78,78,Vlaams Friteshuis Vleminckx,Amsterdam,"['Belgian', 'Dutch', 'Fast Food', 'Vegetarian Friendly', 'Vegan Options']",79,4.5,$,1313,"[['Vleminckx sausmeesters fries', 'Good but not amazzzzzing'], ['01/09/2018', '01/08/2018']]",/Restaurant_Review-g188590-d1935384-Reviews-Vlaams_Friteshuis_Vleminckx-Amsterdam_North_Holland_Province.html,d1935384,52.36778,4.8911
79,79,Bagels & Beans,Amsterdam,"['American', 'Cafe', 'European', 'Vegetarian Friendly', 'Vegan Options', 'Gluten Free Options']",80,4.5,$,1294,"[['It was meant to be', 'Nice Spot'], ['01/09/2018', '01/05/2018']]",/Restaurant_Review-g188590-d1194838-Reviews-Bagels_Beans-Amsterdam_North_Holland_Province.html,d1194838,52.3353,4.88452
80,80,Cafe Piazza,Amsterdam,"['Italian', 'Pizza', 'European', 'Vegetarian Friendly', 'Vegan Options', 'Gluten Free Options']",81,4.5,$$ - $$$,681,"[['Great Italian', 'Amazing'], ['01/07/2018', '01/07/2018']]",/Restaurant_Review-g188590-d1820979-Reviews-Cafe_Piazza-Amsterdam_North_Holland_Province.html,d1820979,52.37198,4.9
81,81,Restaurant RED,Amsterdam,"['Steakhouse', 'Seafood', 'European', 'International']",82,4.5,$$ - $$$,1113,"[['The best surf n turf', 'Impeccable food and service'], ['01/03/2018', '01/03/2018']]",/Restaurant_Review-g188590-d786244-Reviews-Restaurant_RED-Amsterdam_North_Holland_Province.html,d786244,52.36411,4.88923
82,82,De Belhamel,Amsterdam,"['French', 'Dutch', 'European', 'International', 'Vegetarian Friendly', 'Vegan Options', 'Gluten Free Options']",83,4.5,$$$$,1170,"[['Romantic great food', 'Superb in every way - delightful meal on t...'], ['01/09/2018', '01/08/2018']]",/Restaurant_Review-g188590-d696913-Reviews-De_Belhamel-Amsterdam_North_Holland_Province.html,d696913,52.37936,4.89198
83,83,Barbeque Castell,Amsterdam,"['Steakhouse', 'Barbecue', 'European', 'Gluten Free Options']",84,4.5,$$ - $$$,706,"[['Atmospheric Steak', 'Very good.. recommended'], ['01/08/2018', '12/30/2017']]",/Restaurant_Review-g188590-d753106-Reviews-Barbeque_Castell-Amsterdam_North_Holland_Province.html,d753106,52.36274,4.88485
84,84,Seasons Restaurant,Amsterdam,"['Dutch', 'European', 'Vegetarian Friendly', 'Vegan Options', 'Gluten Free Options']",85,4.5,$$ - $$$,1470,"[['Above average Amsterdam', 'Excellent Choice!'], ['12/10/2017', '11/20/2017']]",/Restaurant_Review-g188590-d697013-Reviews-Seasons_Restaurant-Amsterdam_North_Holland_Province.html,d697013,52.37714,4.88897
85,85,Burger Bar,Amsterdam,"['American', 'Fast Food']",86,4.5,$,1379,"[['Great burger', 'Juicy Burgers!'], ['01/03/2018', '01/03/2018']]",/Restaurant_Review-g188590-d1799904-Reviews-Burger_Bar-Amsterdam_North_Holland_Province.html,d1799904,52.35515,4.89327
86,86,Ava Cyril,Amsterdam,"['Steakhouse', 'Italian', 'Pizza', 'Seafood', 'Vegetarian Friendly', 'Gluten Free Options']",87,4.5,$$ - $$$,377,"[['Pizza', 'Friendly and quirky'], ['01/08/2018', '01/06/2018']]",/Restaurant_Review-g188590-d5114123-Reviews-Ava_Cyril-Amsterdam_North_Holland_Province.html,d5114123,52.37793,4.89582
87,87,Restaurant Lt. Cornelis,Amsterdam,"['Dutch', 'European', 'Central European', 'Vegetarian Friendly', 'Vegan Options', 'Gluten Free Options']",88,4.5,$$ - $$$,374,"[['Amazing food', 'Wonderful!'], ['01/08/2018', '01/05/2018']]",/Restaurant_Review-g188590-d9804688-Reviews-Restaurant_Lt_Cornelis-Amsterdam_North_Holland_Province.html,d9804688,52.36823,4.89069
88,88,Restaurant Tomaz,Amsterdam,"['Dutch', 'European', 'Vegetarian Friendly', 'Vegan Options', 'Gluten Free Options']",89,4.5,$$ - $$$,909,"[['Two votes indeed one', 'Warm service from Anne in a cold weather'], ['01/02/2018', '12/29/2017']]",/Restaurant_Review-g188590-d1132828-Reviews-Restaurant_Tomaz-Amsterdam_North_Holland_Province.html,d1132828,52.36945,4.89067
89,89,Koh-i-Noor,Amsterdam,"['Indian', 'Asian', 'Vegetarian Friendly', 'Vegan Options', 'Gluten Free Options']",90,4.5,$$ - $$$,1654,"[['Great food', 'Wonderful visit, v busy'], ['12/30/2017', '12/29/2017']]",/Restaurant_Review-g188590-d1419042-Reviews-Koh_i_Noor-Amsterdam_North_Holland_Province.html,d1419042,52.37191,4.89287
90,90,Cannibale Royale,Amsterdam,"['American', 'Steakhouse', 'Bar', 'Barbecue', 'European', 'Grill', 'Gluten Free Options']",91,4.5,$$ - $$$,888,"[['favorite in amsterdam!', 'Outstanding atmosphere and great food and...'], ['01/05/2018', '01/04/2018']]",/Restaurant_Review-g188590-d6509650-Reviews-Cannibale_Royale-Amsterdam_North_Holland_Province.html,d6509650,52.35362,4.88706
91,91,Cafe de Klos,Amsterdam,"['American', 'Steakhouse', 'Dutch', 'Bar', 'Barbecue', 'European']",92,4.5,$$ - $$$,1833,"[['Ribs that will give you an orgazem', 'Great restaurant'], ['01/08/2018', '01/07/2018']]",/Restaurant_Review-g188590-d696918-Reviews-Cafe_de_Klos-Amsterdam_North_Holland_Province.html,d696918,52.36553,4.88553
92,92,Van Speyk,Amsterdam,"['French', 'Dutch', 'European', 'Central European', 'Vegetarian Friendly', 'Vegan Options', 'Gluten Free Options']",93,4.5,$$ - $$$,1129,"[['moderately priced dutch food', 'Good dinner'], ['01/07/2018', '01/06/2018']]",/Restaurant_Review-g188590-d2413678-Reviews-Van_Speyk-Amsterdam_North_Holland_Province.html,d2413678,52.37734,4.89443
93,93,Foodhallen,Amsterdam,"['Asian', 'Italian', 'French', 'American', 'Indian', 'Dutch', 'Bar', 'Seafood', 'Fast Food', 'Mediterranean', 'Sushi', 'European', 'Spanish', 'Korean', 'Turkish', 'Grill', 'Vietnamese', 'Street Food', 'Vegetarian Friendly', 'Vegan Options', 'Gluten Free Options']",94,4.5,$$ - $$$,1480,"[['Amazing place, great food & vibe - you MUS...', 'So Many Incredible Choices'], ['01/09/2018', '01/09/2018']]",/Restaurant_Review-g188590-d7231902-Reviews-Foodhallen-Amsterdam_North_Holland_Province.html,d7231902,52.36767,4.8677
94,94,stout,Amsterdam,"['Dutch', 'European', 'International', 'Vegetarian Friendly', 'Gluten Free Options', 'Vegan Options']",95,4.5,$$ - $$$,508,"[['Finer dining', 'Quick light bite'], ['12/29/2017', '12/29/2017']]",/Restaurant_Review-g188590-d697075-Reviews-Stout-Amsterdam_North_Holland_Province.html,d697075,52.38017,4.89238
95,95,Venus & Adonis,Amsterdam,"['French', 'Dutch', 'International', 'European', 'Grill', 'Steakhouse', 'Vegetarian Friendly', 'Gluten Free Options']",96,4.5,$$ - $$$,496,"[['nice room', 'Great Christmas dinner!'], ['01/07/2018', '01/07/2018']]",/Restaurant_Review-g188590-d8669315-Reviews-Venus_Adonis-Amsterdam_North_Holland_Province.html,d8669315,52.37105,4.88253
96,96,Vegan Junk Food Bar,Amsterdam,"['American', 'Bar', 'Fast Food', 'European', 'Pub', 'Vegetarian Friendly', 'Vegan Options', 'Gluten Free Options']",97,4.5,$,94,"[['Loved it!!!!!', 'Incredible.'], ['01/08/2018', '01/03/2018']]",/Restaurant_Review-g188590-d12446526-Reviews-Vegan_Junk_Food_Bar-Amsterdam_North_Holland_Province.html,d12446526,52.36057,4.86301
97,97,Norling Restaurant Amsterdam,Amsterdam,"['Tibetan', 'Nepali', 'Vegetarian Friendly', 'Vegan Options', 'Gluten Free Options']",98,4.5,$$ - $$$,637,"[['A pleasant surprise', 'Excellent Food, intimate atmosphere'], ['12/19/2017', '11/28/2017']]",/Restaurant_Review-g188590-d4134378-Reviews-Norling_Restaurant_Amsterdam-Amsterdam_North_Holland_Province.html,d4134378,52.36655,4.89001
98,98,Pasta e Basta,Amsterdam,"['Italian', 'International', 'Mediterranean', 'Vegetarian Friendly', 'Vegan Options']",99,4.5,$$ - $$$,867,"[['New Years Eve at Pasta e Basta - Amazing!', 'Go for the experience'], ['01/04/2018', '01/02/2018']]",/Restaurant_Review-g188590-d696983-Reviews-Pasta_e_Basta-Amsterdam_North_Holland_Province.html,d696983,52.3648,4.88993
99,99,Looks Restaurant,Amsterdam,"['Dutch', 'French', 'Seafood', 'International', 'European', 'Vegetarian Friendly', 'Gluten Free Options']",100,4.5,$$ - $$$,563,"[['Pretty good', 'Excellent meal, friendly service and delic...'], ['01/06/2018', '12/30/2017']]",/Restaurant_Review-g188590-d1310359-Reviews-Looks_Restaurant-Amsterdam_North_Holland_Province.html,d1310359,40.79494,-73.96972
100,100,Molly Malone's Irish Pub,Amsterdam,"['Irish', 'Bar', 'European', 'British', 'Pub', 'International', 'Vegetarian Friendly']",101,4.5,$$ - $$$,696,"[['A must', 'Warm and friendly bar'], ['01/06/2018', '12/30/2017']]",/Restaurant_Review-g188590-d1986862-Reviews-Molly_Malone_s_Irish_Pub-Amsterdam_North_Holland_Province.html,d1986862,52.37606,4.90119
101,101,Stoop & Stoop Eetcafe,Amsterdam,"['Dutch', 'Bar', 'European', 'Central European', 'Vegetarian Friendly', 'Vegan Options', 'Gluten Free Options']",102,4.5,$$ - $$$,475,"[['Excellent experience. A MUST if You`re vis...', 'Great Dutch Food'], ['01/04/2018', '01/03/2018']]",/Restaurant_Review-g188590-d1724981-Reviews-Stoop_Stoop_Eetcafe-Amsterdam_North_Holland_Province.html,d1724981,52.36431,4.88408
102,102,Rijks,Amsterdam,"['Dutch', 'European', 'Vegetarian Friendly', 'Vegan Options', 'Gluten Free Options']",103,4.5,$$$$,1088,"[['Very good with reservations', 'Rounded of an excellent Rijksmuseum experi...'], ['01/09/2018', '01/08/2018']]",/Restaurant_Review-g188590-d7222366-Reviews-Rijks-Amsterdam_North_Holland_Province.html,d7222366,52.36993,4.90788
103,103,Kartika,Amsterdam,"['Asian', 'Indonesian', 'Vegetarian Friendly', 'Vegan Options']",104,4.5,$$ - $$$,1056,"[['Rijstaffel on a rice plate!', 'couple dinner'], ['01/08/2018', '01/06/2018']]",/Restaurant_Review-g188590-d1047813-Reviews-Kartika-Amsterdam_North_Holland_Province.html,d1047813,52.36297,4.8759
104,104,The Lobby Fizeaustraat,Amsterdam,"['Dutch', 'European', 'International', 'Vegetarian Friendly', 'Vegan Options', 'Gluten Free Options']",105,4.5,$$ - $$$,174,"[['Great for dinner', 'Amazing Breakfast!!!'], ['12/25/2017', '12/22/2017']]",/Restaurant_Review-g188590-d10438353-Reviews-The_Lobby_Fizeaustraat-Amsterdam_North_Holland_Province.html,d10438353,52.37094,4.89356
105,105,Dignita Vondelpark,Amsterdam,"['Dutch', 'Cafe', 'International', 'European', 'Gluten Free Options', 'Vegetarian Friendly', 'Vegan Options']",106,4.5,$$ - $$$,160,"[['Pancake', 'Best brunch in Amsterdam'], ['01/07/2018', '12/17/2017']]",/Restaurant_Review-g188590-d8534410-Reviews-Dignita_Vondelpark-Amsterdam_North_Holland_Province.html,d8534410,52.3517,4.85731
106,106,Geflipt Burgers - De Pijp,Amsterdam,"['Bar', 'European', 'American', 'Vegetarian Friendly']",107,4.5,$$ - $$$,409,"[['GREAT!', 'Really good burgers!'], ['01/09/2018', '01/05/2018']]",/Restaurant_Review-g188590-d7058097-Reviews-Geflipt_Burgers_De_Pijp-Amsterdam_North_Holland_Province.html,d7058097,52.35698,4.89965
107,107,Ristorante Italia Oggi,Amsterdam,"['Italian', 'Pizza', 'Mediterranean', 'European', 'Vegetarian Friendly', 'Vegan Options']",108,4.5,$$ - $$$,761,"[['Picked a winner!', 'Excellent! A little taste of Italy in the...'], ['01/07/2018', '01/05/2018']]",/Restaurant_Review-g188590-d2249868-Reviews-Ristorante_Italia_Oggi-Amsterdam_North_Holland_Province.html,d2249868,52.37379,4.90225
108,108,Bakers & Roasters,Amsterdam,"['New Zealand', 'Cafe', 'European', 'Vegetarian Friendly', 'Vegan Options', 'Gluten Free Options']",109,4.5,$$ - $$$,181,"[['Great cafe with excellent food and coffee', 'Best Breakfast in Amsterdam'], ['01/03/2018', '12/29/2017']]",/Restaurant_Review-g188590-d8863669-Reviews-Bakers_Roasters-Amsterdam_North_Holland_Province.html,d8863669,52.37028,4.91272
109,109,Jansz.,Amsterdam,"['French', 'International', 'European', 'Vegetarian Friendly', 'Vegan Options', 'Gluten Free Options']",110,4.5,$$ - $$$,410,"[['Great for a special occasion or a casual d...', 'Great ambience and food'], ['01/05/2018', '01/02/2018']]",/Restaurant_Review-g188590-d9697066-Reviews-Jansz-Amsterdam_North_Holland_Province.html,d9697066,52.37237,4.88426
110,110,Wurst & Schnitzelhaus Prinsengracht,Amsterdam,"['Pub', 'German', 'Bar', 'European', 'Gluten Free Options']",111,4.5,$$ - $$$,302,"[['It was a great experience', 'Not perfect but not bad'], ['01/05/2018', '01/01/2018']]",/Restaurant_Review-g188590-d6613171-Reviews-Wurst_Schnitzelhaus_Prinsengracht-Amsterdam_North_Holland_Province.html,d6613171,52.36442,4.88502
111,111,La Perla,Amsterdam,"['Italian', 'Pizza', 'Mediterranean', 'European', 'Vegetarian Friendly', 'Vegan Options']",112,4.5,$$ - $$$,690,"[['PORCHETTA meets PIZZA', 'Very nice experience and good food too!'], ['01/10/2018', '01/09/2018']]",/Restaurant_Review-g188590-d1770168-Reviews-La_Perla-Amsterdam_North_Holland_Province.html,d1770168,52.3771,4.88189
112,112,De Biertuin,Amsterdam,"['Dutch', 'Bar', 'European', 'Pub', 'Vegetarian Friendly']",113,4.5,$$ - $$$,318,"[['Perfect match with Brouwerij ‚ÄòT Ij', 'Great place for beer'], ['01/02/2018', '12/26/2017']]",/Restaurant_Review-g188590-d3364291-Reviews-De_Biertuin-Amsterdam_North_Holland_Province.html,d3364291,52.37018,4.85141
113,113,Locanda,Amsterdam,"['Italian', 'Mediterranean', 'European', 'Vegetarian Friendly', 'Vegan Options']",114,5,$$ - $$$,93,"[['Gorgeous food', 'What am absolutely amazing place!'], ['11/11/2017', '10/28/2017']]",/Restaurant_Review-g188590-d12212540-Reviews-Locanda-Amsterdam_North_Holland_Province.html,d12212540,52.37812,4.88343
114,114,Dwaze Zaken,Amsterdam,"['French', 'Dutch', 'Cafe', 'European', 'Vegetarian Friendly', 'Vegan Options', 'Gluten Free Options']",115,4.5,$$ - $$$,388,"[['Cute and delicious', 'Great coffee'], ['12/27/2017', '12/18/2017']]",/Restaurant_Review-g188590-d1312322-Reviews-Dwaze_Zaken-Amsterdam_North_Holland_Province.html,d1312322,52.37656,4.89916
115,115,Restaurant Black and Blue,Amsterdam,"['Steakhouse', 'European', 'International', 'Gluten Free Options', 'Vegetarian Friendly']",116,4.5,$$ - $$$,1044,"[['Perfection', 'Delicious'], ['01/08/2018', '01/07/2018']]",/Restaurant_Review-g188590-d6978678-Reviews-Restaurant_Black_and_Blue-Amsterdam_North_Holland_Province.html,d6978678,52.37566,4.88545
116,116,IL Pacioccone,Amsterdam,"['Mediterranean', 'Italian', 'European', 'Vegetarian Friendly']",117,4.5,$$ - $$$,1307,"[['Real Italian food', 'Super lunch in Amsterdam'], ['01/07/2018', '12/30/2017']]",/Restaurant_Review-g188590-d4548131-Reviews-IL_Pacioccone-Amsterdam_North_Holland_Province.html,d4548131,52.37648,4.89564
117,117,Visaandeschelde,Amsterdam,"['Dutch', 'Seafood', 'European', 'Vegetarian Friendly', 'Gluten Free Options']",118,4.5,$$$$,522,"[['Fabulous dinner!', 'Excellent food, but too crowded and loud'], ['12/17/2017', '12/14/2017']]",/Restaurant_Review-g188590-d697050-Reviews-Visaandeschelde-Amsterdam_North_Holland_Province.html,d697050,52.34456,4.89047
118,118,Toro Dorado / Quality Steaks,Amsterdam,"['Steakhouse', 'International', 'Grill']",119,4.5,$$$$,1160,"[['Really good quality food !', 'Very good Argentinian steak house'], ['01/09/2018', '01/07/2018']]",/Restaurant_Review-g188590-d1425825-Reviews-Toro_Dorado_Quality_Steaks-Amsterdam_North_Holland_Province.html,d1425825,52.37734,4.89443
119,119,Restaurant Olijfje,Amsterdam,"['Mediterranean', 'European', 'Spanish', 'Turkish', 'Middle Eastern', 'Vegetarian Friendly', 'Vegan Options', 'Halal', 'Gluten Free Options']",120,4.5,$$ - $$$,335,"[['Fabulous find! :)', 'Perfect NYE Meal'], ['01/04/2018', '01/03/2018']]",/Restaurant_Review-g188590-d2044977-Reviews-Restaurant_Olijfje-Amsterdam_North_Holland_Province.html,d2044977,52.36896,4.90536
120,120,Ristorante Savini,Amsterdam,"['Italian', 'Mediterranean', 'European', 'Vegetarian Friendly', 'Vegan Options', 'Gluten Free Options']",121,4.5,$$ - $$$,664,"[['Excellent little Italian!', 'Good pasta savini'], ['01/08/2018', '01/07/2018']]",/Restaurant_Review-g188590-d2044907-Reviews-Ristorante_Savini-Amsterdam_North_Holland_Province.html,d2044907,52.3774,4.89456
121,121,Calf & Bloom,Amsterdam,"['Bar', 'Cafe', 'European', 'Dutch', 'International', 'Vegetarian Friendly', 'Vegan Options', 'Gluten Free Options']",122,4.5,$$ - $$$,289,"[['Absolutely 5* food and service.', 'Nice informal place'], ['01/08/2018', '01/02/2018']]",/Restaurant_Review-g188590-d4310535-Reviews-Calf_Bloom-Amsterdam_North_Holland_Province.html,d4310535,52.36713,4.89141
122,122,Gollem's Proeflokaal,Amsterdam,"['Belgian', 'Dutch', 'Bar', 'European', 'Pub']",123,4.5,$$ - $$$,318,"[['Unmissable!!!', 'Good beer good food'], ['01/09/2018', '01/06/2018']]",/Restaurant_Review-g188590-d2405892-Reviews-Gollem_s_Proeflokaal-Amsterdam_North_Holland_Province.html,d2405892,52.36226,4.87316
123,123,Pianeta Terra,Amsterdam,"['Italian', 'Mediterranean', 'Vegetarian Friendly', 'Vegan Options']",124,4.5,$$ - $$$,250,"[['excellent italian slow food', 'Nice experience , but we were not wowed'], ['12/25/2017', '12/08/2017']]",/Restaurant_Review-g188590-d1101252-Reviews-Pianeta_Terra-Amsterdam_North_Holland_Province.html,d1101252,52.36805,4.88772
124,124,Wok to Walk,Amsterdam,"['Fast Food', 'Asian', 'Vegetarian Friendly', 'Vegan Options', 'Gluten Free Options']",125,4.5,$,1998,"[['The perfect place for a quick bite', 'best iv had , better than UK'], ['01/08/2018', '01/08/2018']]",/Restaurant_Review-g188590-d1028391-Reviews-Wok_to_Walk-Amsterdam_North_Holland_Province.html,d1028391,52.37196,4.89549
125,125,Yamazato Restaurant,Amsterdam,"['Japanese', 'Sushi', 'Asian', 'Vegetarian Friendly', 'Vegan Options', 'Gluten Free Options']",126,4.5,$$$$,1006,"[['Amazing menu. Incredible atmosphere', 'Excellent japanese dinner'], ['01/08/2018', '01/04/2018']]",/Restaurant_Review-g188590-d693553-Reviews-Yamazato_Restaurant-Amsterdam_North_Holland_Province.html,d693553,52.34859,4.89347
126,126,De Nachtwacht,Amsterdam,"['Steakhouse', 'Dutch', 'Bar', 'Barbecue', 'European', 'Gluten Free Options']",127,4.5,$$ - $$$,968,"[['Ribs steak beer wine and atmosphere', 'Consistently good for many years'], ['01/09/2018', '01/06/2018']]",/Restaurant_Review-g188590-d2066520-Reviews-De_Nachtwacht-Amsterdam_North_Holland_Province.html,d2066520,52.36556,4.89568
127,127,Arles,Amsterdam,"['French', 'Vegetarian Friendly', 'Vegan Options']",128,5,$$ - $$$,87,"[['Dinner with Family and Friends', 'Casual fine dining'], ['12/21/2017', '12/03/2017']]",/Restaurant_Review-g188590-d11671406-Reviews-Arles-Amsterdam_North_Holland_Province.html,d11671406,52.35624,4.89819
128,128,La Oliva,Amsterdam,"['Mediterranean', 'European', 'Spanish', 'Vegetarian Friendly', 'Vegan Options', 'Gluten Free Options']",129,4.5,$$ - $$$,642,"[['great Spanish evening', 'Excellent Pinxos!'], ['01/03/2018', '01/02/2018']]",/Restaurant_Review-g188590-d1059001-Reviews-La_Oliva-Amsterdam_North_Holland_Province.html,d1059001,52.37664,4.88223
129,129,"Cafe de Dam, Louis Bar",Amsterdam,['Pub'],130,4.5,$,272,"[['The place to be!', 'Good Surprise....'], ['01/08/2018', '12/18/2017']]",/Restaurant_Review-g188590-d3726256-Reviews-Cafe_de_Dam_Louis_Bar-Amsterdam_North_Holland_Province.html,d3726256,52.37236,4.89429
130,130,The Good Companion,Amsterdam,"['Bar', 'Seafood', 'European', 'British', 'Gastropub', 'Pub', 'Vegetarian Friendly']",131,5,$$ - $$$,80,"[['Excellent Fish and Chips', 'Excellent fish and chips'], ['12/24/2017', '12/22/2017']]",/Restaurant_Review-g188590-d12526899-Reviews-The_Good_Companion-Amsterdam_North_Holland_Province.html,d12526899,52.37784,4.87991
131,131,Thaise Snackbar Bird,Amsterdam,"['Asian', 'Thai', 'Vegetarian Friendly', 'Vegan Options']",132,4.5,$,436,"[['Third visit', 'Very Tasty'], ['12/22/2017', '12/22/2017']]",/Restaurant_Review-g188590-d6600036-Reviews-Thaise_Snackbar_Bird-Amsterdam_North_Holland_Province.html,d6600036,52.37461,4.90069
132,132,Kinnaree Thai Cuisine,Amsterdam,"['Asian', 'Thai', 'Vegetarian Friendly', 'Vegan Options', 'Gluten Free Options']",133,4.5,$$ - $$$,512,"[['Good Thai food', 'Really nice food'], ['11/13/2017', '11/08/2017']]",/Restaurant_Review-g188590-d783382-Reviews-Kinnaree_Thai_Cuisine-Amsterdam_North_Holland_Province.html,d783382,52.37806,4.88346
133,133,Blue Amsterdam,Amsterdam,"['Dutch', 'Bar', 'Cafe', 'European', 'Vegetarian Friendly', 'Vegan Options', 'Gluten Free Options']",134,4.5,$$ - $$$,508,"[['Last meal of the trip', 'Hidden away spot'], ['01/09/2018', '12/26/2017']]",/Restaurant_Review-g188590-d2035406-Reviews-Blue_Amsterdam-Amsterdam_North_Holland_Province.html,d2035406,52.36715,4.89125
134,134,Wilde Zwijnen,Amsterdam,"['Dutch', 'European', 'Vegetarian Friendly', 'Vegan Options', 'Gluten Free Options']",135,4.5,$$ - $$$,366,"[['Nice place in Oost', 'Understated excellence'], ['01/01/2018', '12/23/2017']]",/Restaurant_Review-g188590-d1930393-Reviews-Wilde_Zwijnen-Amsterdam_North_Holland_Province.html,d1930393,52.36356,4.9402
135,135,Wink,Amsterdam,"['Mediterranean', 'European', 'Vegetarian Friendly', 'Vegan Options', 'Gluten Free Options']",136,5,$$ - $$$,199,"[['This must be one of the most underated res...', 'Excellent'], ['12/08/2017', '10/26/2017']]",/Restaurant_Review-g188590-d4420532-Reviews-Wink-Amsterdam_North_Holland_Province.html,d4420532,52.3566,4.89939
136,136,Mothers,Amsterdam,"['Dutch', 'European', 'Vegetarian Friendly', 'Vegan Options', 'Gluten Free Options']",137,4.5,$$ - $$$,1987,"[['Kitschy historic delicious Dutch fare', 'Awesome Traditional Dutch Food and Atmosph...'], ['01/10/2018', '01/08/2018']]",/Restaurant_Review-g188590-d804416-Reviews-Mothers-Amsterdam_North_Holland_Province.html,d804416,52.36993,4.90788
137,137,Pllek,Amsterdam,"['Dutch', 'Bar', 'European', 'International', 'Vegetarian Friendly', 'Vegan Options', 'Gluten Free Options']",138,4,$$ - $$$,714,"[['Quirky set up, great food & atmosphere', 'Enjoy the view of Het Y'], ['12/30/2017', '12/22/2017']]",/Restaurant_Review-g188590-d3733708-Reviews-Pllek-Amsterdam_North_Holland_Province.html,d3733708,52.40107,4.89502
138,138,Casa Nostra,Amsterdam,"['Italian', 'Mediterranean', 'European', 'Vegetarian Friendly', 'Vegan Options', 'Gluten Free Options']",139,4.5,$$ - $$$,448,"[['One of the best restaurants in Amsterdam', 'A cosy excellent restaurant'], ['01/05/2018', '12/12/2017']]",/Restaurant_Review-g188590-d6133039-Reviews-Casa_Nostra-Amsterdam_North_Holland_Province.html,d6133039,52.3555,4.90326
139,139,Pasta Pasta,Amsterdam,"['Italian', 'European', 'Vegetarian Friendly', 'Vegan Options']",140,4.5,$,1003,"[['Awesome food and great service', 'If you want real homemade pasta, go here...'], ['01/02/2018', '12/30/2017']]",/Restaurant_Review-g188590-d4263555-Reviews-Pasta_Pasta-Amsterdam_North_Holland_Province.html,d4263555,52.35465,4.89042
140,140,Hasta La Pasta,Amsterdam,"['Italian', 'European', 'Vegetarian Friendly', 'Vegan Options']",141,4.5,$,385,"[['Relatively good value for money', 'Very vegan friendly!'], ['01/06/2018', '01/06/2018']]",/Restaurant_Review-g188590-d4360209-Reviews-Hasta_La_Pasta-Amsterdam_North_Holland_Province.html,d4360209,52.37417,4.89376
141,141,Bistrot des Alpes,Amsterdam,"['French', 'Swiss', 'European', 'Central European', 'Vegetarian Friendly', 'Gluten Free Options']",142,5,$$ - $$$,136,"[['Yummy cheese fondue', 'Great place !'], ['12/21/2017', '10/28/2017']]",/Restaurant_Review-g188590-d7735788-Reviews-Bistrot_des_Alpes-Amsterdam_North_Holland_Province.html,d7735788,52.36191,4.90143
142,142,Cafe Loetje,Amsterdam,"['Steakhouse', 'Dutch', 'Bar', 'European', 'Vegetarian Friendly', 'Gluten Free Options']",143,4.5,$$ - $$$,1447,"[['Excellent', 'Best steak'], ['01/02/2018', '12/29/2017']]",/Restaurant_Review-g188590-d790095-Reviews-Cafe_Loetje-Amsterdam_North_Holland_Province.html,d790095,52.35436,4.88445
143,143,Bridges,Amsterdam,"['French', 'Dutch', 'Seafood', 'European', 'Vegetarian Friendly', 'Gluten Free Options']",144,4.5,$$$$,961,"[['Very good food, just a little boring', 'We only had breakfast but it was very good'], ['01/09/2018', '01/03/2018']]",/Restaurant_Review-g188590-d697076-Reviews-Bridges-Amsterdam_North_Holland_Province.html,d697076,52.37111,4.89569
144,144,Humphrey's,Amsterdam,"['Dutch', 'European', 'International', 'Vegetarian Friendly', 'Vegan Options', 'Gluten Free Options']",145,4.5,$$ - $$$,1410,"[['Omg, this was awesome!!', 'Great food and service'], ['01/06/2018', '01/06/2018']]",/Restaurant_Review-g188590-d946652-Reviews-Humphrey_s-Amsterdam_North_Holland_Province.html,d946652,52.37623,4.89425
145,145,La Casa De Michael,Amsterdam,"['Italian', 'Vegetarian Friendly', 'Vegan Options']",146,4.5,$$ - $$$,230,"[['Hannah: NSW, Australia', 'Nice and taste place to eat'], ['01/08/2018', '01/04/2018']]",/Restaurant_Review-g188590-d9798024-Reviews-La_Casa_De_Michael-Amsterdam_North_Holland_Province.html,d9798024,52.38444,4.8469
146,146,Restaurant Floreyn,Amsterdam,"['Dutch', 'European', 'Seafood', 'Vegetarian Friendly', 'Gluten Free Options', 'Vegan Options']",147,5,$$ - $$$,81,"[['Everything I want in a restaurant', 'Outstanding cuisine!'], ['01/03/2018', '12/17/2017']]",/Restaurant_Review-g188590-d12527902-Reviews-Restaurant_Floreyn-Amsterdam_North_Holland_Province.html,d12527902,52.35458,4.88793
147,147,Restaurant Haesje Claes,Amsterdam,"['Dutch', 'International', 'European', 'Central European', 'Vegetarian Friendly', 'Vegan Options', 'Gluten Free Options']",148,4,$$ - $$$,3595,"[['Not a bad find!', 'Worth a visit'], ['01/01/2018', '12/04/2017']]",/Restaurant_Review-g188590-d697000-Reviews-Restaurant_Haesje_Claes-Amsterdam_North_Holland_Province.html,d697000,40.79494,-73.96972
148,148,De Blauwe Hollander,Amsterdam,"['German', 'Scandinavian', 'Dutch']",149,4.5,$$ - $$$,1030,"[['Fantastic dutch style cuisine', 'Great dutch cuisine'], ['01/08/2018', '12/28/2017']]",/Restaurant_Review-g188590-d948896-Reviews-De_Blauwe_Hollander-Amsterdam_North_Holland_Province.html,d948896,52.36343,4.8848
149,149,CT coffee & coconuts,Amsterdam,"['Cafe', 'European', 'Vegetarian Friendly', 'Vegan Options', 'Gluten Free Options']",150,4.5,$$ - $$$,603,"[['Good for coffee and food', 'Delish - perfect break spot!'], ['01/03/2018', '01/02/2018']]",/Restaurant_Review-g188590-d7728346-Reviews-CT_coffee_coconuts-Amsterdam_North_Holland_Province.html,d7728346,52.35279,4.8914
150,150,La Luna Steakhouse Grill,Amsterdam,"['Steakhouse', 'Argentinean', 'South American', 'Grill', 'Gluten Free Options']",151,4.5,$$ - $$$,906,"[['Lovley place', 'Lovely restaurant'], ['01/08/2018', '01/07/2018']]",/Restaurant_Review-g188590-d3813787-Reviews-La_Luna_Steakhouse_Grill-Amsterdam_North_Holland_Province.html,d3813787,52.36429,4.8841
151,151,de Luwte,Amsterdam,"['Dutch', 'Mediterranean', 'European', 'International', 'Vegetarian Friendly', 'Gluten Free Options']",152,4.5,$$ - $$$,635,"[['Excellent restaurant with great ambience', 'Great Value for Exceptional Food and Servi...'], ['01/03/2018', '12/25/2017']]",/Restaurant_Review-g188590-d808295-Reviews-De_Luwte-Amsterdam_North_Holland_Province.html,d808295,52.37523,4.88671
152,152,Het Karbeel,Amsterdam,"['Dutch', 'Swiss', 'European', 'Central European', 'Vegetarian Friendly']",153,4,$$ - $$$,809,"[['Nice', 'nice resturant, nice staff'], ['01/01/2018', '12/09/2017']]",/Restaurant_Review-g188590-d1193265-Reviews-Het_Karbeel-Amsterdam_North_Holland_Province.html,d1193265,52.37602,4.8991
153,153,Restaurant Bleu,Amsterdam,"['French', 'International', 'Dutch', 'European', 'Central European', 'Vegetarian Friendly', 'Gluten Free Options']",154,4.5,$$ - $$$,233,"[['Great Place!', 'Excellent food, but some mess-ups from the...'], ['01/02/2018', '01/01/2018']]",/Restaurant_Review-g188590-d10127182-Reviews-Restaurant_Bleu-Amsterdam_North_Holland_Province.html,d10127182,52.3777,4.88731
154,154,Lucius Seafood Restaurant,Amsterdam,"['Dutch', 'Seafood', 'European', 'Soups', 'Vegetarian Friendly', 'Gluten Free Options']",155,4,$$ - $$$,1239,"[['Lovely family style seafood restaurant', 'Looking for Great Seafood?'], ['01/07/2018', '12/23/2017']]",/Restaurant_Review-g188590-d1045616-Reviews-Lucius_Seafood_Restaurant-Amsterdam_North_Holland_Province.html,d1045616,52.32424,4.88434
155,155,Villa Maria Restaurant-Amsterdam,Amsterdam,"['Steakhouse', 'Latin', 'Barbecue', 'European', 'Argentinean', 'South American', 'Vegetarian Friendly']",156,4.5,$$ - $$$,482,"[['Perfect foods', 'Everything is hillarious!'], ['01/05/2018', '01/05/2018']]",/Restaurant_Review-g188590-d4588301-Reviews-Villa_Maria_Restaurant_Amsterdam-Amsterdam_North_Holland_Province.html,d4588301,40.78585,-73.97635
156,156,Restaurant Choux,Amsterdam,"['Dutch', 'European', 'Vegetarian Friendly', 'Vegan Options', 'Gluten Free Options']",157,4.5,$$ - $$$,221,"[['Nice little find, but book', 'Fantastic'], ['12/29/2017', '11/20/2017']]",/Restaurant_Review-g188590-d8308612-Reviews-Restaurant_Choux-Amsterdam_North_Holland_Province.html,d8308612,52.37769,4.90721
157,157,The White Room,Amsterdam,"['French', 'Dutch', 'International', 'European', 'Contemporary', 'Vegetarian Friendly', 'Vegan Options']",158,4.5,$$$$,103,"[['Absolutely stunning place', 'Unique experience in all possible ways'], ['01/07/2018', '12/24/2017']]",/Restaurant_Review-g188590-d10452503-Reviews-The_White_Room-Amsterdam_North_Holland_Province.html,d10452503,52.37277,4.89428
158,158,Kaagman en Kortekaas,Amsterdam,"['Dutch', 'Seafood', 'European', 'Vegetarian Friendly', 'Gluten Free Options']",159,4.5,$$$$,147,"[['Unigue', 'Fantastic food'], ['12/18/2017', '11/07/2017']]",/Restaurant_Review-g188590-d8724251-Reviews-Kaagman_en_Kortekaas-Amsterdam_North_Holland_Province.html,d8724251,52.37485,4.89236
159,159,Bird Thai Restaurant,Amsterdam,"['Asian', 'Thai', 'Vegetarian Friendly', 'Vegan Options', 'Gluten Free Options']",160,4,$$ - $$$,1641,"[['Great Thai Food', 'Delicious'], ['12/12/2017', '12/07/2017']]",/Restaurant_Review-g188590-d697021-Reviews-Bird_Thai_Restaurant-Amsterdam_North_Holland_Province.html,d697021,40.79494,-73.96972
160,160,Pressroom,Amsterdam,"['French', 'Dutch', 'International', 'European', 'Vegetarian Friendly', 'Gluten Free Options', 'Vegan Options']",161,4.5,$$ - $$$,175,"[['Good food in a relaxed setting', 'Great Find - cool bar'], ['01/09/2018', '01/01/2018']]",/Restaurant_Review-g188590-d8669652-Reviews-Pressroom-Amsterdam_North_Holland_Province.html,d8669652,52.34099,4.88997
161,161,Cafe Sonneveld,Amsterdam,"['Dutch', 'Bar', 'European', 'Vegetarian Friendly', 'Gluten Free Options']",162,4,$$ - $$$,544,"[['So pleased we did.....', 'Pleasent spot off the beaten path'], ['10/02/2017', '09/28/2017']]",/Restaurant_Review-g188590-d3292685-Reviews-Cafe_Sonneveld-Amsterdam_North_Holland_Province.html,d3292685,52.37627,4.88228
162,162,Cafe T Smalle,Amsterdam,"['Dutch', 'Bar', 'Cafe', 'European', 'Pub', 'Vegetarian Friendly']",163,4.5,$$ - $$$,435,"[['Visited again after 4 years and will come...', 'The best of a beer cafe in A‚Äôdam'], ['01/04/2018', '01/04/2018']]",/Restaurant_Review-g188590-d2659631-Reviews-Cafe_T_Smalle-Amsterdam_North_Holland_Province.html,d2659631,52.3693,4.94053
163,163,Sir Hummus,Amsterdam,"['Healthy', 'Middle Eastern', 'Vegetarian Friendly', 'Vegan Options', 'Gluten Free Options']",164,5,$,126,"[['Great service, great food!', 'Amazing Hummus!'], ['11/24/2017', '11/19/2017']]",/Restaurant_Review-g188590-d7607446-Reviews-Sir_Hummus-Amsterdam_North_Holland_Province.html,d7607446,52.35179,4.89456
164,164,Restaurant d'Vijff Vlieghen,Amsterdam,"['Dutch', 'European', 'Vegetarian Friendly', 'Vegan Options', 'Gluten Free Options']",165,4,$$$$,1340,"[['Brilliant fish, but make sure you can affo...', 'WELL WORTH A VISIT'], ['12/09/2017', '11/16/2017']]",/Restaurant_Review-g188590-d696910-Reviews-Restaurant_d_Vijff_Vlieghen-Amsterdam_North_Holland_Province.html,d696910,52.36963,4.88888
165,165,Rakang,Amsterdam,"['Asian', 'Thai', 'Vegetarian Friendly', 'Vegan Options', 'Gluten Free Options']",166,4.5,$$ - $$$,414,"[['Best Thai in Amsterdam', 'Great food and great service'], ['12/27/2017', '11/04/2017']]",/Restaurant_Review-g188590-d696996-Reviews-Rakang-Amsterdam_North_Holland_Province.html,d696996,52.36968,4.8812
166,166,FEBO,Amsterdam,"['Dutch', 'Fast Food', 'European']",167,4,$,782,"[['Super Cheap and Always Busy', 'best cheap food in holland!'], ['12/07/2017', '12/02/2017']]",/Restaurant_Review-g188590-d802851-Reviews-FEBO-Amsterdam_North_Holland_Province.html,d802851,52.31251,4.94491
167,167,Gollem Craft Beers,Amsterdam,"['Bar', 'Pub']",168,4.5,$$ - $$$,136,"[['Great beer, charming atmosphere', 'Craft beer bar'], ['12/22/2017', '12/14/2017']]",/Restaurant_Review-g188590-d7367722-Reviews-Gollem_Craft_Beers-Amsterdam_North_Holland_Province.html,d7367722,52.3662,4.89989
168,168,Soup en Zo,Amsterdam,"['European', 'Soups', 'International', 'Vegetarian Friendly', 'Vegan Options', 'Gluten Free Options']",169,4.5,$,226,"[['Amazing flavour', 'Fantastic!'], ['12/11/2017', '11/30/2017']]",/Restaurant_Review-g188590-d2321581-Reviews-Soup_en_Zo-Amsterdam_North_Holland_Province.html,d2321581,52.35421,4.88143
169,169,Greetje,Amsterdam,"['Dutch', 'European', 'Delicatessen', 'Vegetarian Friendly', 'Gluten Free Options']",170,4.5,$$ - $$$,843,"[['Great restaurant!', 'One of the best in Amsterdam!'], ['01/06/2018', '01/04/2018']]",/Restaurant_Review-g188590-d1060341-Reviews-Greetje-Amsterdam_North_Holland_Province.html,d1060341,52.37162,4.90764
170,170,Ctaste,Amsterdam,"['European', 'International', 'Vegetarian Friendly', 'Vegan Options', 'Gluten Free Options']",171,4,$$ - $$$,540,"[['The food was good and the experience is sp...', 'Different Experience'], ['12/02/2017', '11/29/2017']]",/Restaurant_Review-g188590-d817648-Reviews-Ctaste-Amsterdam_North_Holland_Province.html,d817648,52.3542,4.90658
171,171,Blauw aan de Wal,Amsterdam,"['French', 'European', 'Vegetarian Friendly', 'Gluten Free Options']",172,4.5,$$$$,344,"[['Best meal in Amsterdam', 'Great food, great location'], ['01/03/2018', '12/29/2017']]",/Restaurant_Review-g188590-d696890-Reviews-Blauw_aan_de_Wal-Amsterdam_North_Holland_Province.html,d696890,52.37246,4.89802
172,172,The French Connection,Amsterdam,"['French', 'Asian', 'European', 'Gluten Free Options', 'Vegetarian Friendly', 'Vegan Options']",173,4.5,$$ - $$$,376,"[['Outstanding restaurant', 'Great spot'], ['01/06/2018', '01/05/2018']]",/Restaurant_Review-g188590-d8506168-Reviews-The_French_Connection-Amsterdam_North_Holland_Province.html,d8506168,52.36759,4.88891
173,173,Restaurant Blauw Amsterdam,Amsterdam,"['Asian', 'Indonesian', 'Vegetarian Friendly', 'Vegan Options', 'Gluten Free Options']",174,4.5,$$ - $$$,1044,"[['Indonesian Rijsttafel will lots to offer', 'Oh my go(o)d! We love it'], ['01/04/2018', '12/14/2017']]",/Restaurant_Review-g188590-d1986573-Reviews-Restaurant_Blauw_Amsterdam-Amsterdam_North_Holland_Province.html,d1986573,52.35354,4.85588
174,174,Vlaamse Friet Snackland,Amsterdam,"['Dutch', 'Fast Food', 'Vegetarian Friendly', 'Vegan Options']",175,4.5,$,328,"[['Great tasting!', 'Great Snack'], ['01/06/2018', '12/08/2017']]",/Restaurant_Review-g188590-d3651482-Reviews-Vlaamse_Friet_Snackland-Amsterdam_North_Holland_Province.html,d3651482,52.37512,4.89555
175,175,Barney's Coffeeshop,Amsterdam,,176,4.5,,498,"[['So good we went back 3 times', 'Polite staff, good price and flavours.'], ['01/04/2018', '12/28/2017']]",/Restaurant_Review-g188590-d696883-Reviews-Barney_s_Coffeeshop-Amsterdam_North_Holland_Province.html,d696883,52.38061,4.89088
176,176,De Pizzabakkers Haarlemmerdijk,Amsterdam,"['Italian', 'Pizza', 'European', 'Vegetarian Friendly', 'Vegan Options']",177,4.5,$$ - $$$,231,"[['Good pizza', 'Great pizza and company'], ['11/01/2017', '10/18/2017']]",/Restaurant_Review-g188590-d1432041-Reviews-De_Pizzabakkers_Haarlemmerdijk-Amsterdam_North_Holland_Province.html,d1432041,52.3834,4.88591
177,177,The Avocado Show,Amsterdam,"['European', 'Vegetarian Friendly', 'Vegan Options', 'Gluten Free Options']",178,4,$$ - $$$,284,"[['Phenomenal!', 'Good place to try'], ['01/08/2018', '01/07/2018']]",/Restaurant_Review-g188590-d12262809-Reviews-The_Avocado_Show-Amsterdam_North_Holland_Province.html,d12262809,52.35612,4.87104
178,178,Pancake en Burger Bar,Amsterdam,"['Dutch', 'European', 'Grill', 'Central European', 'Vegetarian Friendly', 'Vegan Options', 'Gluten Free Options']",179,4.5,$,155,"[['A great find!', 'Really good find with good Gluten Free opt...'], ['01/06/2018', '01/01/2018']]",/Restaurant_Review-g188590-d10507583-Reviews-Pancake_en_Burger_Bar-Amsterdam_North_Holland_Province.html,d10507583,52.36416,4.88429
179,179,Brouwerij de Prael,Amsterdam,"['Dutch', 'Bar', 'European', 'Pub', 'Vegetarian Friendly']",180,4.5,$$ - $$$,354,"[['For beer lovers', 'Hidden gem'], ['01/03/2018', '12/30/2017']]",/Restaurant_Review-g188590-d2336115-Reviews-Brouwerij_de_Prael-Amsterdam_North_Holland_Province.html,d2336115,52.37562,4.89944
180,180,The Lebanese Sajeria,Amsterdam,"['Lebanese', 'Middle Eastern', 'Fast Food', 'Vegetarian Friendly', 'Vegan Options']",181,5,$,72,"[['Too good.', 'Excellent Lebanese eatery in Amsterdam'], ['12/31/2017', '12/28/2017']]",/Restaurant_Review-g188590-d11817073-Reviews-The_Lebanese_Sajeria-Amsterdam_North_Holland_Province.html,d11817073,52.36875,4.88735
181,181,VINNIES at Haarlemmerstraat (city center),Amsterdam,"['Cafe', 'International', 'European', 'Healthy', 'Vegetarian Friendly', 'Vegan Options', 'Gluten Free Options']",182,4.5,$$ - $$$,260,"[['Great for breakast', 'Cute little cafe'], ['01/06/2018', '12/15/2017']]",/Restaurant_Review-g188590-d3373938-Reviews-VINNIES_at_Haarlemmerstraat_city_center-Amsterdam_North_Holland_Province.html,d3373938,52.38007,4.89274
182,182,Cau,Amsterdam,"['Steakhouse', 'European', 'Argentinean', 'South American', 'Gluten Free Options']",183,4,$$ - $$$,2647,"[['One of the best choices in Amsterdam for m...', 'good place but not excelent'], ['01/02/2018', '12/17/2017']]",/Restaurant_Review-g188590-d1052661-Reviews-Cau-Amsterdam_North_Holland_Province.html,d1052661,52.37227,4.89454
183,183,Utrechtsedwarstafel,Amsterdam,"['French', 'Dutch', 'European', 'Gluten Free Options', 'Vegetarian Friendly']",184,5,$$$$,220,"[['Memorable dining experience', 'Great food and wine'], ['12/05/2017', '11/26/2017']]",/Restaurant_Review-g188590-d1111389-Reviews-Utrechtsedwarstafel-Amsterdam_North_Holland_Province.html,d1111389,52.36172,4.9004
184,184,Momo,Amsterdam,"['Japanese', 'Sushi', 'Asian', 'Fusion', 'Vegetarian Friendly', 'Vegan Options', 'Gluten Free Options']",185,4,$$$$,1359,"[['Walking back to hotel from museums', 'dinner'], ['01/07/2018', '01/04/2018']]",/Restaurant_Review-g188590-d1200439-Reviews-Momo-Amsterdam_North_Holland_Province.html,d1200439,52.36145,4.88247
185,185,Cafe-Restaurant de Plantage,Amsterdam,"['French', 'Dutch', 'Mediterranean', 'European', 'Vegetarian Friendly', 'Vegan Options', 'Gluten Free Options']",186,4,$$ - $$$,724,"[['Top location', 'Lovely location, good food, indifferent se...'], ['01/02/2018', '12/31/2017']]",/Restaurant_Review-g188590-d7133288-Reviews-Cafe_Restaurant_de_Plantage-Amsterdam_North_Holland_Province.html,d7133288,52.3662,4.91155
186,186,Gauchos - Spuistraat,Amsterdam,"['Steakhouse', 'European', 'Argentinean', 'Gluten Free Options']",187,4,$$ - $$$,442,"[['Good staff and food', 'Great Steak House in Amsterdam'], ['01/03/2018', '11/27/2017']]",/Restaurant_Review-g188590-d1425819-Reviews-Gauchos_Spuistraat-Amsterdam_North_Holland_Province.html,d1425819,52.37734,4.89443
187,187,De Bekeerde Suster,Amsterdam,"['Dutch', 'Bar', 'European', 'Pub', 'Vegetarian Friendly']",188,4.5,$$ - $$$,400,"[['Very nice brewpub', 'My type of Brew Pub'], ['01/08/2018', '12/07/2017']]",/Restaurant_Review-g188590-d2056711-Reviews-De_Bekeerde_Suster-Amsterdam_North_Holland_Province.html,d2056711,52.372,4.89936
188,188,IZAKAYA Asian Kitchen & Bar,Amsterdam,"['Japanese', 'Sushi', 'Asian', 'Vegetarian Friendly', 'Vegan Options', 'Gluten Free Options']",189,4,$$$$,583,"[['Good sushi. Stay away from robata.', 'excellent, if expensive, food and service'], ['12/21/2017', '10/25/2017']]",/Restaurant_Review-g188590-d3581153-Reviews-IZAKAYA_Asian_Kitchen_Bar-Amsterdam_North_Holland_Province.html,d3581153,52.3546,4.88748
189,189,Restaurant MOER,Amsterdam,"['European', 'Dutch', 'Vegetarian Friendly', 'Vegan Options', 'Gluten Free Options']",190,4.5,$$$$,87,"[['Beautiful restaurant, simple and very tast...', 'Great meal, great service'], ['01/04/2018', '12/03/2017']]",/Restaurant_Review-g188590-d12064582-Reviews-Restaurant_MOER-Amsterdam_North_Holland_Province.html,d12064582,52.35733,4.85519
190,190,Pasta Factory,Amsterdam,"['Italian', 'European', 'Vegetarian Friendly', 'Vegan Options', 'Gluten Free Options']",191,4.5,$$ - $$$,591,"[['Pasta factory', 'Excellent food!'], ['01/07/2018', '12/31/2017']]",/Restaurant_Review-g188590-d3726294-Reviews-Pasta_Factory-Amsterdam_North_Holland_Province.html,d3726294,52.36684,4.89342
191,191,Indonesian Kitchen,Amsterdam,"['Asian', 'Indonesian', 'Vegetarian Friendly', 'Vegan Options', 'Gluten Free Options']",192,4.5,$$ - $$$,126,"[['A fine authentical indonsian cuisine', 'A very tasty meal!'], ['01/07/2018', '12/04/2017']]",/Restaurant_Review-g188590-d10145720-Reviews-Indonesian_Kitchen-Amsterdam_North_Holland_Province.html,d10145720,52.37094,4.88719
192,192,Ramen-Ya Amsterdam,Amsterdam,"['Japanese', 'Asian', 'Soups', 'Vegetarian Friendly', 'Vegan Options']",193,4,$$ - $$$,614,"[['Quick Dinner', 'Good Ramen, dark location'], ['01/06/2018', '01/03/2018']]",/Restaurant_Review-g188590-d6969775-Reviews-Ramen_Ya_Amsterdam-Amsterdam_North_Holland_Province.html,d6969775,52.37202,4.89577
193,193,Long Pura,Amsterdam,"['Asian', 'Indonesian', 'Vegetarian Friendly', 'Vegan Options']",194,4,$$ - $$$,611,"[['solid 4', ""Try the Tasting Menu if you're new to Indo...""], ['01/10/2018', '11/28/2017']]",/Restaurant_Review-g188590-d887341-Reviews-Long_Pura-Amsterdam_North_Holland_Province.html,d887341,52.37349,4.88107
194,194,Cocotte,Amsterdam,"['French', 'Cafe', 'European', 'Vegetarian Friendly', 'Gluten Free Options']",195,4.5,$$ - $$$,88,"[['Incredible staff and crepes !', 'Excellent cr√™pes bretonnes :-)'], ['12/06/2017', '12/02/2017']]",/Restaurant_Review-g188590-d11621407-Reviews-Cocotte-Amsterdam_North_Holland_Province.html,d11621407,52.37431,4.89021
195,195,Yu Family Kitchen,Amsterdam,"['Chinese', 'Fast Food', 'Asian', 'Vegetarian Friendly', 'Vegan Options']",196,4.5,$,305,"[['Delicious', 'Great food, service and location'], ['12/29/2017', '11/25/2017']]",/Restaurant_Review-g188590-d4177241-Reviews-Yu_Family_Kitchen-Amsterdam_North_Holland_Province.html,d4177241,52.37617,4.89538
196,196,Bierfabriek Amsterdam,Amsterdam,"['Dutch', 'Bar', 'European', 'Pub', 'Grill', 'Vegetarian Friendly']",197,4,$$ - $$$,847,"[['Cheap eats and beer', 'Very nice and good restaurant near Rokin t...'], ['01/04/2018', '12/03/2017']]",/Restaurant_Review-g188590-d2629279-Reviews-Bierfabriek_Amsterdam-Amsterdam_North_Holland_Province.html,d2629279,52.37054,4.89285
197,197,The Old Bell,Amsterdam,"['Bar', 'European', 'British', 'Pub', 'Gastropub', 'Vegetarian Friendly']",198,4,$$ - $$$,377,"[['Good value pub food and friendly atmospher...', 'Drinks'], ['12/25/2017', '11/27/2017']]",/Restaurant_Review-g188590-d3331281-Reviews-The_Old_Bell-Amsterdam_North_Holland_Province.html,d3331281,52.36588,4.89734
198,198,Tasca Bellota,Amsterdam,"['Mediterranean', 'European', 'Spanish', 'Vegetarian Friendly', 'Gluten Free Options']",199,4.5,$$ - $$$,365,"[['Excellent!', 'Excellent experience of Spanish delicacies'], ['01/09/2018', '01/06/2018']]",/Restaurant_Review-g188590-d2431853-Reviews-Tasca_Bellota-Amsterdam_North_Holland_Province.html,d2431853,52.37721,4.88878
199,199,Sham Restaurant,Amsterdam,"['Mediterranean', 'Middle Eastern', 'Arabic', 'Vegetarian Friendly', 'Vegan Options', 'Halal', 'Gluten Free Options']",200,4.5,$$ - $$$,111,"[['Fantastic Restaurant in Nieumarkt', 'Best Arabic/Syrian Food in Amsterdam'], ['01/01/2018', '12/29/2017']]",/Restaurant_Review-g188590-d12173793-Reviews-Sham_Restaurant-Amsterdam_North_Holland_Province.html,d12173793,52.37024,4.85911
200,200,Pompa,Amsterdam,"['Italian', 'Mediterranean', 'European', 'Spanish', 'Vegetarian Friendly', 'Vegan Options']",201,4,$$ - $$$,814,"[['No Pompa and Ceremony - just good food', 'Nice intimate restaurant, off shopping dis...'], ['12/28/2017', '11/23/2017']]",/Restaurant_Review-g188590-d1895630-Reviews-Pompa-Amsterdam_North_Holland_Province.html,d1895630,52.358,4.87802
201,201,Van Gogh Museum Cafe,Amsterdam,"['Cafe', 'European', 'Vegetarian Friendly', 'Gluten Free Options']",202,4,$$ - $$$,687,"[['nice place, great view', 'Bright and Friendly'], ['01/08/2018', '01/04/2018']]",/Restaurant_Review-g188590-d4562372-Reviews-Van_Gogh_Museum_Cafe-Amsterdam_North_Holland_Province.html,d4562372,52.35866,4.8809
202,202,Manneken Pis Amsterdam,Amsterdam,"['Dutch', 'Fast Food', 'Vegetarian Friendly', 'Vegan Options']",203,4,$,1222,"[['Great Chips and Sauces!', 'Chips... don‚Äôt get it'], ['01/05/2018', '12/31/2017']]",/Restaurant_Review-g188590-d2405822-Reviews-Manneken_Pis_Amsterdam-Amsterdam_North_Holland_Province.html,d2405822,52.3757,4.89628
203,203,Cannibale Royale Ruysdaelkade,Amsterdam,"['American', 'Steakhouse', 'Bar', 'Barbecue', 'European', 'Grill']",204,4.5,$$ - $$$,220,"[['Deserves a much higher ranking than it has...', 'Great steaks'], ['12/22/2017', '12/14/2017']]",/Restaurant_Review-g188590-d8092429-Reviews-Cannibale_Royale_Ruysdaelkade-Amsterdam_North_Holland_Province.html,d8092429,52.35362,4.88706
204,204,Grizzly,Amsterdam,"['American', 'Bar', 'European', 'Pub', 'Vegetarian Friendly']",205,4,$$ - $$$,306,"[['Great little find', 'Very tasty chicken burger'], ['12/09/2017', '12/02/2017']]",/Restaurant_Review-g188590-d10770094-Reviews-Grizzly-Amsterdam_North_Holland_Province.html,d10770094,52.37505,4.89769
205,205,Saturnino,Amsterdam,"['Italian', 'Pizza', 'Mediterranean', 'European', 'Vegetarian Friendly', 'Vegan Options']",206,4,$$ - $$$,601,"[['Nice pizza on first day of New Year', 'Erg lekker. Geen touristenmaal.'], ['01/06/2018', '12/29/2017']]",/Restaurant_Review-g188590-d1319309-Reviews-Saturnino-Amsterdam_North_Holland_Province.html,d1319309,52.36684,4.88929
206,206,Tasty Asia,Amsterdam,"['Chinese', 'Sushi', 'Asian', 'Thai', 'Vegetarian Friendly']",207,4.5,$,150,"[['Yummy! Nice service, tasty food, great pri...', 'So Good and Great Prices!'], ['11/15/2017', '11/09/2017']]",/Restaurant_Review-g188590-d1718997-Reviews-Tasty_Asia-Amsterdam_North_Holland_Province.html,d1718997,52.3662,4.89906
207,207,Brouwerij Troost de Pijp,Amsterdam,"['Dutch', 'Bar', 'European', 'Pub', 'Vegetarian Friendly', 'Vegan Options', 'Gluten Free Options']",208,4.5,$$ - $$$,211,"[['Friendly service and great atmoshphere', 'Burger & beer'], ['12/17/2017', '12/17/2017']]",/Restaurant_Review-g188590-d6695141-Reviews-Brouwerij_Troost_de_Pijp-Amsterdam_North_Holland_Province.html,d6695141,52.35063,4.89106
208,208,Tulsi Indian Restaurant,Amsterdam,"['Indian', 'Asian', 'Balti', 'Vegetarian Friendly', 'Vegan Options', 'Gluten Free Options']",209,4.5,$$ - $$$,87,"[['Cozy Ambience & Delicious Food', 'Genuine restraurant'], ['01/08/2018', '01/08/2018']]",/Restaurant_Review-g188590-d12067969-Reviews-Tulsi_Indian_Restaurant-Amsterdam_North_Holland_Province.html,d12067969,52.35061,4.90362
209,209,Bazar,Amsterdam,"['Moroccan', 'Mediterranean', 'Turkish', 'Middle Eastern', 'Tunisian', 'Persian', 'Vegetarian Friendly', 'Vegan Options', 'Halal', 'Gluten Free Options']",210,4,$$ - $$$,1348,"[['Nice but noisy diner', 'Very unique-looking converted church with...'], ['12/23/2017', '11/27/2017']]",/Restaurant_Review-g188590-d808739-Reviews-Bazar-Amsterdam_North_Holland_Province.html,d808739,52.35591,4.8951
210,210,SkyLounge,Amsterdam,"['Dutch', 'Bar', 'European', 'Wine Bar', 'Vegetarian Friendly']",211,4,$$ - $$$,1637,"[['Great views--lively crowd', 'Go before the crowds'], ['12/30/2017', '12/27/2017']]",/Restaurant_Review-g188590-d4259991-Reviews-SkyLounge-Amsterdam_North_Holland_Province.html,d4259991,52.37436,4.89346
211,211,Serre Restaurant,Amsterdam,"['French', 'European', 'Central European', 'International', 'Vegetarian Friendly', 'Vegan Options', 'Gluten Free Options']",212,4.5,$$ - $$$,343,"[['Wonderful lunch', 'Excellent dining option in Amsterdam'], ['12/05/2017', '11/11/2017']]",/Restaurant_Review-g188590-d2062908-Reviews-Serre_Restaurant-Amsterdam_North_Holland_Province.html,d2062908,52.34859,4.89347
212,212,de Bijenkorf Kitchen Amsterdam,Amsterdam,"['International', 'Sushi', 'Italian', 'Grill', 'Vegetarian Friendly', 'Vegan Options']",213,4,$$ - $$$,357,"[['try the hot choclate', 'Good selection of food in an elegant fast...'], ['12/22/2017', '12/14/2017']]",/Restaurant_Review-g188590-d4573259-Reviews-De_Bijenkorf_Kitchen_Amsterdam-Amsterdam_North_Holland_Province.html,d4573259,52.37385,4.89393
213,213,BORRL Kitchen,Amsterdam,"['Dutch', 'Bar', 'Cafe', 'European', 'Diner', 'Central European', 'Vegetarian Friendly', 'Vegan Options', 'Gluten Free Options']",214,4.5,$$ - $$$,132,"[['Easygoing news years drinks', 'Amazing brunch with great service and cosy...'], ['01/07/2018', '01/07/2018']]",/Restaurant_Review-g188590-d11815861-Reviews-BORRL_Kitchen-Amsterdam_North_Holland_Province.html,d11815861,52.36692,4.91221
214,214,Latei,Amsterdam,"['European', 'Vegetarian Friendly', 'Vegan Options', 'Gluten Free Options']",215,4.5,$,268,"[['Traditional sandwiches in a trendy atmosph...', 'Great small oasis in middle of chaos'], ['11/19/2017', '11/06/2017']]",/Restaurant_Review-g188590-d1006367-Reviews-Latei-Amsterdam_North_Holland_Province.html,d1006367,52.37327,4.90025
215,215,Elkaar,Amsterdam,"['French', 'European', 'Vegetarian Friendly', 'Gluten Free Options']",216,4.5,$$ - $$$,175,"[['Birthday meal', 'Great food for a nice price'], ['12/20/2017', '11/05/2017']]",/Restaurant_Review-g188590-d1006534-Reviews-Elkaar-Amsterdam_North_Holland_Province.html,d1006534,52.3632,4.91941
216,216,O'Reilly's Irish Pub,Amsterdam,"['Irish', 'Bar', 'European', 'Pub', 'Vegetarian Friendly']",217,4,$$ - $$$,582,"[['Nice bar to relax in', 'Great game'], ['01/09/2018', '11/14/2017']]",/Restaurant_Review-g188590-d967451-Reviews-O_Reilly_s_Irish_Pub-Amsterdam_North_Holland_Province.html,d967451,52.37243,4.88995
217,217,Maoz Vegetarian,Amsterdam,"['Fast Food', 'Mediterranean', 'Middle Eastern', 'Vegetarian Friendly', 'Vegan Options', 'Gluten Free Options']",218,4.5,$,619,"[['Unbelievable Falafel', 'Amazing!'], ['12/23/2017', '12/16/2017']]",/Restaurant_Review-g188590-d808290-Reviews-Maoz_Vegetarian-Amsterdam_North_Holland_Province.html,d808290,52.36484,4.88408
218,218,MR PORTER,Amsterdam,"['Steakhouse', 'European', 'Grill', 'Vegetarian Friendly', 'Gluten Free Options']",219,4,$$$$,403,"[['Spontaneous night to Mr Porter', 'Impressive!'], ['01/05/2018', '01/04/2018']]",/Restaurant_Review-g188590-d8810565-Reviews-MR_PORTER-Amsterdam_North_Holland_Province.html,d8810565,52.37291,4.88962
219,219,Boca's,Amsterdam,"['Dutch', 'Bar', 'European', 'Vegetarian Friendly']",220,4.5,$$ - $$$,271,"[['Pleasant surprise', 'Great tapas'], ['01/06/2018', '01/01/2018']]",/Restaurant_Review-g188590-d3595812-Reviews-Boca_s-Amsterdam_North_Holland_Province.html,d3595812,52.35431,4.89379
220,220,Bulls and Dogs,Amsterdam,"['American', 'Bar', 'European', 'Vegetarian Friendly']",221,4.5,$,191,"[['Unique, one-of-a-kind freaked out freaksha...', 'Delicious find!!'], ['01/09/2018', '01/07/2018']]",/Restaurant_Review-g188590-d10035061-Reviews-Bulls_and_Dogs-Amsterdam_North_Holland_Province.html,d10035061,52.35581,4.90048
221,221,Trattoria Caprese Amsterdam,Amsterdam,"['Italian', 'European', 'Mediterranean', 'Vegetarian Friendly', 'Vegan Options']",222,4,$$ - $$$,749,"[['Surprise surprise!', 'Excellent Italian-Touristy Pricing'], ['12/10/2017', '11/25/2017']]",/Restaurant_Review-g188590-d1863038-Reviews-Trattoria_Caprese_Amsterdam-Amsterdam_North_Holland_Province.html,d1863038,52.37025,4.88907
222,222,Casa di David,Amsterdam,"['Italian', 'Pizza', 'Mediterranean', 'European', 'Vegetarian Friendly', 'Vegan Options']",223,4,$$ - $$$,1046,"[['Good value for money', 'Authentic Italian'], ['01/05/2018', '01/02/2018']]",/Restaurant_Review-g188590-d753318-Reviews-Casa_di_David-Amsterdam_North_Holland_Province.html,d753318,52.36831,4.88789
223,223,Nooch,Amsterdam,"['Chinese', 'Japanese', 'Sushi', 'Asian', 'Thai', 'Vegetarian Friendly', 'Vegan Options', 'Gluten Free Options']",224,4,$$ - $$$,402,"[['Good low key Asian restaurant', 'Good asian'], ['12/19/2017', '12/11/2017']]",/Restaurant_Review-g188590-d2355557-Reviews-Nooch-Amsterdam_North_Holland_Province.html,d2355557,52.37238,4.88401
224,224,Puri Mas,Amsterdam,"['Asian', 'Indonesian', 'Vegetarian Friendly', 'Vegan Options', 'Gluten Free Options']",225,4,$$ - $$$,552,"[['Excellent', 'Lovely Indonesian food'], ['12/15/2017', '12/05/2017']]",/Restaurant_Review-g188590-d1071052-Reviews-Puri_Mas-Amsterdam_North_Holland_Province.html,d1071052,52.36446,4.88496
225,225,John Dory fish restaurant,Amsterdam,"['Dutch', 'Seafood', 'European', 'Gluten Free Options']",226,4.5,$$$$,101,"[['Amazing', 'Delish!'], ['01/01/2018', '12/29/2017']]",/Restaurant_Review-g188590-d10209523-Reviews-John_Dory_fish_restaurant-Amsterdam_North_Holland_Province.html,d10209523,40.77939,-73.98107
226,226,Humphrey's Spuistraat,Amsterdam,"['French', 'Dutch', 'European', 'International', 'Vegetarian Friendly', 'Gluten Free Options']",227,4,$$ - $$$,505,"[['Nice 3 course meal', 'Excellent Saturday eve 6:00 meal with frie...'], ['01/04/2018', '01/01/2018']]",/Restaurant_Review-g188590-d4080535-Reviews-Humphrey_s_Spuistraat-Amsterdam_North_Holland_Province.html,d4080535,52.36997,4.88899
227,227,Proeflokaal A. van Wees,Amsterdam,"['Dutch', 'Bar', 'European', 'Gastropub', 'Cafe', 'Vegetarian Friendly']",228,4.5,$$ - $$$,201,"[['Historic jewel of a bar in Amsterdam', 'Great Place for Drinks and Lunch'], ['12/30/2017', '12/17/2017']]",/Restaurant_Review-g188590-d753101-Reviews-Proeflokaal_A_van_Wees-Amsterdam_North_Holland_Province.html,d753101,52.37005,4.8871
228,228,Amigo Restaurant,Amsterdam,"['Steakhouse', 'Barbecue', 'Grill', 'Argentinean', 'Vegetarian Friendly']",229,4.5,$$ - $$$,97,"[['My place in Amsterdam', 'Amazing!!!!!!!'], ['01/09/2018', '12/30/2017']]",/Restaurant_Review-g188590-d10376830-Reviews-Amigo_Restaurant-Amsterdam_North_Holland_Province.html,d10376830,52.37382,4.88236
229,229,Sampurna,Amsterdam,"['Asian', 'Indonesian', 'Vegetarian Friendly', 'Vegan Options']",230,4,$$ - $$$,818,"[['An authentic Indonesian meal in Amsterdam', 'Wonderful lunch in a very touristy place'], ['01/07/2018', '01/07/2018']]",/Restaurant_Review-g188590-d1053304-Reviews-Sampurna-Amsterdam_North_Holland_Province.html,d1053304,52.3669,4.89032
230,230,EN Japanese kitchen & sake bar,Amsterdam,"['Japanese', 'Sushi', 'Asian', 'Vegetarian Friendly', 'Vegan Options', 'Gluten Free Options']",231,4.5,$$ - $$$,131,"[['best place I have been so far', 'Top class'], ['12/25/2017', '12/23/2017']]",/Restaurant_Review-g188590-d7655576-Reviews-EN_Japanese_kitchen_sake_bar-Amsterdam_North_Holland_Province.html,d7655576,52.35099,4.88915
231,231,Restaurant Girassol,Amsterdam,"['Mediterranean', 'European', 'Portuguese', 'Vegetarian Friendly', 'Gluten Free Options']",232,4.5,$$ - $$$,200,"[['Sunny gem amidst the snow', '<3 GIRASSOL <3'], ['12/17/2017', '12/15/2017']]",/Restaurant_Review-g188590-d808734-Reviews-Restaurant_Girassol-Amsterdam_North_Holland_Province.html,d808734,52.37511,4.89778
232,232,St James's Gate Irish Pub,Amsterdam,"['Irish', 'Bar', 'European', 'British', 'Pub', 'Gastropub', 'Vegetarian Friendly']",233,4,$$ - $$$,710,"[['Old and comfortable', 'Fish and chips!'], ['01/10/2018', '11/24/2017']]",/Restaurant_Review-g188590-d2206986-Reviews-St_James_s_Gate_Irish_Pub-Amsterdam_North_Holland_Province.html,d2206986,52.36592,4.89575
233,233,Benny‚Äôs Chicken,Amsterdam,"['Dutch', 'Fast Food', 'Barbecue', 'European', 'Street Food', 'Halal']",234,5,$,88,"[['Great chicken sandwich!', 'Fresh, Cheap and Halal (Win!)'], ['12/03/2017', '11/04/2017']]",/Restaurant_Review-g188590-d10522612-Reviews-Benny_s_Chicken-Amsterdam_North_Holland_Province.html,d10522612,52.35577,4.89448
234,234,Pikoteo,Amsterdam,"['Mediterranean', 'European', 'Spanish', 'Fusion', 'Vegetarian Friendly', 'Vegan Options', 'Gluten Free Options']",235,4.5,$$ - $$$,128,"[['New Years Eve Meal & Drinks', 'I want to come back everyday!'], ['01/01/2018', '11/08/2017']]",/Restaurant_Review-g188590-d9704862-Reviews-Pikoteo-Amsterdam_North_Holland_Province.html,d9704862,52.39001,4.88566
235,235,Restaurant Anna,Amsterdam,"['European', 'Vegetarian Friendly', 'Gluten Free Options']",236,4,$$$$,493,"[[""A gush of fresh air in Amsterdam's mid pri..."", 'A diamond losing its sharp edges..'], ['01/04/2018', '12/05/2017']]",/Restaurant_Review-g188590-d2199244-Reviews-Restaurant_Anna-Amsterdam_North_Holland_Province.html,d2199244,52.37428,4.89662
236,236,Shah-jahan,Amsterdam,"['Indian', 'Asian', 'Balti', 'Vegetarian Friendly', 'Vegan Options', 'Gluten Free Options']",237,4.5,$$ - $$$,208,"[['Good Taste in the heart of Amsterdam', 'The best Indian meal I have ever had'], ['01/08/2018', '01/04/2018']]",/Restaurant_Review-g188590-d1552511-Reviews-Shah_jahan-Amsterdam_North_Holland_Province.html,d1552511,52.37806,4.88346
237,237,Cafe Restaurant In de Buurt,Amsterdam,"['Dutch', 'Bar', 'European', 'International', 'Vegetarian Friendly', 'Gluten Free Options']",238,4.5,$$ - $$$,346,"[['Lovely!', 'Good food and good price'], ['01/07/2018', '12/10/2017']]",/Restaurant_Review-g188590-d3331419-Reviews-Cafe_Restaurant_In_de_Buurt-Amsterdam_North_Holland_Province.html,d3331419,52.36296,4.88441
238,238,Restaurant Sinne,Amsterdam,"['French', 'Dutch', 'European', 'Vegetarian Friendly', 'Gluten Free Options']",239,4.5,$$$$,194,"[['Great evening with colleagues', 'Very interesting plates at decent prices f...'], ['12/03/2017', '12/01/2017']]",/Restaurant_Review-g188590-d5062771-Reviews-Restaurant_Sinne-Amsterdam_North_Holland_Province.html,d5062771,52.35313,4.89409
239,239,Original Stroopwafels,Amsterdam,"['Dutch', 'Fast Food']",240,5,$,75,"[['The best Stroopwafels ever :) !!!!', 'Tasty'], ['01/04/2018', '01/03/2018']]",/Restaurant_Review-g188590-d9607846-Reviews-Original_Stroopwafels-Amsterdam_North_Holland_Province.html,d9607846,42.93896,-74.18893
240,240,Salmuera,Amsterdam,"['South American', 'Mexican', 'Steakhouse', 'Latin', 'Barbecue', 'Argentinean', 'Central American', 'Gluten Free Options']",241,4.5,$$ - $$$,204,"[['Fabulous atmosphere, wonderful food', 'Good meal, good service, good atmosphere...'], ['01/08/2018', '01/07/2018']]",/Restaurant_Review-g188590-d8076841-Reviews-Salmuera-Amsterdam_North_Holland_Province.html,d8076841,52.37311,4.8795
241,241,Pizzeria Fuoco Vivo,Amsterdam,"['Italian', 'Pizza', 'Mediterranean', 'European', 'Vegetarian Friendly', 'Vegan Options']",242,4.5,$$ - $$$,391,"[['Best pizza in Amsterdam', 'Amazing pizza and pannacotta'], ['11/18/2017', '11/12/2017']]",/Restaurant_Review-g188590-d1870319-Reviews-Pizzeria_Fuoco_Vivo-Amsterdam_North_Holland_Province.html,d1870319,52.37163,4.87342
242,242,Snappers,Amsterdam,"['Bar', 'European', 'International']",243,4.5,$$ - $$$,364,"[['Best Ribs and Wings EVER!!', 'Awesome bachelors party'], ['12/27/2017', '12/11/2017']]",/Restaurant_Review-g188590-d6672896-Reviews-Snappers-Amsterdam_North_Holland_Province.html,d6672896,52.36237,4.86645
243,243,Blushing Amsterdam,Amsterdam,"['Dutch', 'Cafe', 'European', 'Vegetarian Friendly', 'Vegan Options', 'Gluten Free Options']",244,4,$$ - $$$,542,"[['Not bad, but didnt feel any athmosphere in...', 'Lovely place and quality food'], ['12/19/2017', '12/07/2017']]",/Restaurant_Review-g188590-d8530801-Reviews-Blushing_Amsterdam-Amsterdam_North_Holland_Province.html,d8530801,52.35874,4.88048
244,244,Auberge Jean & Marie,Amsterdam,"['French', 'European', 'Wine Bar', 'Vegetarian Friendly', 'Gluten Free Options']",245,4.5,$$ - $$$,99,"[['Recommended', ""It's not just the food""], ['01/04/2018', '12/13/2017']]",/Restaurant_Review-g188590-d8800296-Reviews-Auberge_Jean_Marie-Amsterdam_North_Holland_Province.html,d8800296,52.35474,4.88917
245,245,Corner Bakery Amsterdam,Amsterdam,"['Dutch', 'Cafe', 'European', 'Vegetarian Friendly', 'Vegan Options', 'Gluten Free Options']",246,4.5,$$ - $$$,210,"[['Fully loaded Sunday breakfast', 'Delicious American pancakes'], ['01/07/2018', '12/29/2017']]",/Restaurant_Review-g188590-d6634960-Reviews-Corner_Bakery_Amsterdam-Amsterdam_North_Holland_Province.html,d6634960,52.3621,4.86437
246,246,Cafe P96,Amsterdam,"['Bar', 'Cafe', 'Pub', 'Dutch', 'European', 'Vegetarian Friendly', 'Vegan Options']",247,4.5,$,171,"[['Great place for a beer!', 'Friendly cafe /bar'], ['12/02/2017', '11/29/2017']]",/Restaurant_Review-g188590-d3807244-Reviews-Cafe_P96-Amsterdam_North_Holland_Province.html,d3807244,52.37709,4.88501
247,247,The Butcher,Amsterdam,"['American', 'Fast Food', 'Vegetarian Friendly']",248,4,$$ - $$$,650,"[['Nice burgers but...', 'Really good burger'], ['01/10/2018', '12/16/2017']]",/Restaurant_Review-g188590-d3606493-Reviews-The_Butcher-Amsterdam_North_Holland_Province.html,d3606493,52.37223,4.8892
248,248,Ristorante Due Napoletani,Amsterdam,"['Italian', 'Mediterranean', 'European', 'Vegetarian Friendly', 'Vegan Options', 'Gluten Free Options']",249,4.5,$$ - $$$,202,"[['A little bit of Naples in Amsterdam', 'Warm and friendly'], ['01/09/2018', '12/31/2017']]",/Restaurant_Review-g188590-d4040691-Reviews-Ristorante_Due_Napoletani-Amsterdam_North_Holland_Province.html,d4040691,52.35422,4.88642
249,249,Loetje Centraal,Amsterdam,"['Steakhouse', 'Dutch', 'Bar', 'European', 'Central European', 'Vegetarian Friendly', 'Gluten Free Options']",250,4,$$ - $$$,827,"[['A good touristy steak restaurant', 'Good'], ['11/30/2017', '11/15/2017']]",/Restaurant_Review-g188590-d8009660-Reviews-Loetje_Centraal-Amsterdam_North_Holland_Province.html,d8009660,52.3779,4.90038
250,250,Indrapura,Amsterdam,"['Asian', 'Indonesian', 'Vegetarian Friendly', 'Vegan Options', 'Gluten Free Options']",251,4,$$ - $$$,1074,"[['The place for ""rice table""', 'Great food and even better lamps'], ['01/06/2018', '12/12/2017']]",/Restaurant_Review-g188590-d1200726-Reviews-Indrapura-Amsterdam_North_Holland_Province.html,d1200726,52.36586,4.89712
251,251,De Duvel,Amsterdam,"['Dutch', 'European', 'Vegetarian Friendly', 'Vegan Options', 'Gluten Free Options']",252,4.5,$$ - $$$,235,"[['Very good spot either to eat or have a dri...', 'Feel like a local'], ['01/10/2018', '12/16/2017']]",/Restaurant_Review-g188590-d2095858-Reviews-De_Duvel-Amsterdam_North_Holland_Province.html,d2095858,52.35478,4.89348
252,252,Drovers Dog,Amsterdam,"['Bar', 'European', 'Australian', 'Vegetarian Friendly', 'Vegan Options', 'Gluten Free Options']",253,4.5,$$ - $$$,256,"[['Excellent food! Great service!', 'Mixed results'], ['12/26/2017', '12/16/2017']]",/Restaurant_Review-g188590-d6542442-Reviews-Drovers_Dog-Amsterdam_North_Holland_Province.html,d6542442,52.35206,4.9132
253,253,Bake My Day,Amsterdam,"['Cafe', 'European', 'Vegetarian Friendly', 'Vegan Options', 'Gluten Free Options']",254,4.5,$$ - $$$,183,"[['Amazing Bakery', 'Delicious!'], ['01/08/2018', '12/30/2017']]",/Restaurant_Review-g188590-d8790091-Reviews-Bake_My_Day-Amsterdam_North_Holland_Province.html,d8790091,52.35718,4.89863
254,254,Jaspers,Amsterdam,"['Dutch', 'European', 'French', 'Gluten Free Options']",255,5,$$$$,126,"[['Christmas eve dinner', 'Excellent meal'], ['12/24/2017', '12/02/2017']]",/Restaurant_Review-g188590-d3628712-Reviews-Jaspers-Amsterdam_North_Holland_Province.html,d3628712,52.36431,4.86746
255,255,Klaver 4 ontbijt- en lunchcafe,Amsterdam,"['Dutch', 'Cafe', 'European', 'Gastropub', 'Vegetarian Friendly', 'Vegan Options', 'Gluten Free Options']",256,4.5,$$ - $$$,140,"[['Great Coffee and Quiche', 'Gorgeous food'], ['12/06/2017', '10/18/2017']]",/Restaurant_Review-g188590-d3397804-Reviews-Klaver_4_ontbijt_en_lunchcafe-Amsterdam_North_Holland_Province.html,d3397804,38.89037,-77.03196
256,256,5&33,Amsterdam,"['Italian', 'Mediterranean', 'European', 'Spanish', 'Vegetarian Friendly', 'Vegan Options', 'Gluten Free Options']",257,4,$$ - $$$,399,"[['Great Food', 'Pollo Diavolo rather bland'], ['01/06/2018', '10/30/2017']]",/Restaurant_Review-g188590-d4975685-Reviews-5_33-Amsterdam_North_Holland_Province.html,d4975685,52.37806,4.89682
257,257,Little Collins,Amsterdam,"['Australian', 'European', 'International', 'Vegetarian Friendly', 'Vegan Options', 'Gluten Free Options']",258,4.5,$$ - $$$,265,"[['Highly recommend!', 'Absolutely amazing food, decent ambience...'], ['12/22/2017', '12/04/2017']]",/Restaurant_Review-g188590-d3175544-Reviews-Little_Collins-Amsterdam_North_Holland_Province.html,d3175544,52.36797,4.87159
258,258,Oresti's Taverna,Amsterdam,"['Mediterranean', 'Spanish', 'Vegetarian Friendly', 'Vegan Options', 'Gluten Free Options']",259,4.5,$$ - $$$,342,"[['Perfect- best place we‚Äôve been in Amsterda...', 'Great Tapas'], ['01/04/2018', '12/22/2017']]",/Restaurant_Review-g188590-d2297611-Reviews-Oresti_s_Taverna-Amsterdam_North_Holland_Province.html,d2297611,52.35612,4.89188
259,259,Mata Hari,Amsterdam,"['Dutch', 'Bar', 'European', 'Vegetarian Friendly', 'Gluten Free Options']",260,4,$$ - $$$,373,"[['Lovely meal', 'Great dining in this buzzing place'], ['12/04/2017', '10/30/2017']]",/Restaurant_Review-g188590-d2723687-Reviews-Mata_Hari-Amsterdam_North_Holland_Province.html,d2723687,52.37463,4.90019
260,260,Restaurant 't Zwaantje,Amsterdam,"['French', 'Dutch', 'European', 'Central European', 'Vegetarian Friendly']",261,4,$$ - $$$,471,"[['Really Dutch', 'A great find'], ['11/10/2017', '11/09/2017']]",/Restaurant_Review-g188590-d1423473-Reviews-Restaurant_t_Zwaantje-Amsterdam_North_Holland_Province.html,d1423473,52.37038,4.8838
261,261,Sefa Grill Restaurant,Amsterdam,"['Fast Food', 'European', 'Turkish', 'Middle Eastern', 'Vegetarian Friendly', 'Halal', 'Vegan Options']",262,4.5,$,78,"[['Ecellent kebab', 'Best Turkish in Amsterdam!'], ['01/03/2018', '01/03/2018']]",/Restaurant_Review-g188590-d8440816-Reviews-Sefa_Grill_Restaurant-Amsterdam_North_Holland_Province.html,d8440816,52.37399,4.88375
262,262,Ali Ocakbasi,Amsterdam,"['Mediterranean', 'Barbecue', 'Turkish', 'Middle Eastern', 'Vegetarian Friendly', 'Vegan Options', 'Halal', 'Gluten Free Options']",263,4.5,$$ - $$$,255,"[['Stumbled across a Gem', 'Solid'], ['12/29/2017', '11/24/2017']]",/Restaurant_Review-g188590-d7710013-Reviews-Ali_Ocakbasi-Amsterdam_North_Holland_Province.html,d7710013,52.36494,4.89773
263,263,Hannekes Boom,Amsterdam,"['Dutch', 'Bar', 'European', 'Pub', 'Vegetarian Friendly']",264,4,$$ - $$$,349,"[['Interesting.', 'The perfect place in summer'], ['12/31/2017', '09/23/2017']]",/Restaurant_Review-g188590-d4844212-Reviews-Hannekes_Boom-Amsterdam_North_Holland_Province.html,d4844212,52.37661,4.91213
264,264,Ron Gastrobar,Amsterdam,"['French', 'Dutch', 'European', 'Delicatessen', 'Vegetarian Friendly', 'Gluten Free Options']",265,4,$$$$,796,"[['Interesting', 'Excellent food'], ['12/30/2017', '12/18/2017']]",/Restaurant_Review-g188590-d1887528-Reviews-Ron_Gastrobar-Amsterdam_North_Holland_Province.html,d1887528,52.35236,4.85663
265,265,Cafe de Jaren,Amsterdam,"['Dutch', 'Bar', 'Cafe', 'European', 'International', 'Vegetarian Friendly', 'Vegan Options']",266,4,$$ - $$$,1079,"[['Good place to chill', 'Lovely bright cafe'], ['12/31/2017', '12/25/2017']]",/Restaurant_Review-g188590-d697070-Reviews-Cafe_de_Jaren-Amsterdam_North_Holland_Province.html,d697070,52.36812,4.89528
266,266,Hard Rock Cafe Amsterdam,Amsterdam,"['Barbecue', 'American', 'Vegetarian Friendly', 'Vegan Options', 'Gluten Free Options']",267,4,$$ - $$$,6777,"[['Love ! Food and cocktails amazing!', 'As always- great'], ['01/09/2018', '01/08/2018']]",/Restaurant_Review-g188590-d1010937-Reviews-Hard_Rock_Cafe_Amsterdam-Amsterdam_North_Holland_Province.html,d1010937,52.36223,4.88299
267,267,Dabka,Amsterdam,"['Lebanese', 'Mediterranean', 'Middle Eastern', 'Vegetarian Friendly', 'Vegan Options', 'Halal', 'Gluten Free Options']",268,4,$$ - $$$,306,"[['Wonderful!', 'Best meal we had in Amsterdam'], ['12/08/2017', '11/11/2017']]",/Restaurant_Review-g188590-d3387286-Reviews-Dabka-Amsterdam_North_Holland_Province.html,d3387286,52.37591,4.90085
268,268,Restaurant Envy,Amsterdam,"['European', 'International', 'Vegetarian Friendly', 'Vegan Options', 'Gluten Free Options']",269,4,$$$$,951,"[['Just about', 'Eye for detail'], ['12/22/2017', '11/20/2017']]",/Restaurant_Review-g188590-d793234-Reviews-Restaurant_Envy-Amsterdam_North_Holland_Province.html,d793234,52.35296,4.89186
269,269,Hotel de Goudfazant,Amsterdam,"['French', 'Dutch', 'European', 'Fusion', 'Vegetarian Friendly', 'Gluten Free Options']",270,4.5,$$ - $$$,389,"[['Quirky cool restaurant, on the other side...', 'Great food and wine in an industrial atmos...'], ['12/19/2017', '12/02/2017']]",/Restaurant_Review-g188590-d1423083-Reviews-Hotel_de_Goudfazant-Amsterdam_North_Holland_Province.html,d1423083,52.38434,4.92778
270,270,Amigo Argentijns Restaurant,Amsterdam,"['Steakhouse', 'Barbecue', 'Grill', 'Argentinean', 'South American', 'Gluten Free Options']",271,4.5,$$ - $$$,310,"[['Amazing meat', 'The best steak I‚Äôve ever had'], ['01/05/2018', '01/03/2018']]",/Restaurant_Review-g188590-d2228019-Reviews-Amigo_Argentijns_Restaurant-Amsterdam_North_Holland_Province.html,d2228019,52.37542,4.89824
271,271,Pulitzer's Bar,Amsterdam,"['Bar', 'European']",272,4.5,$$ - $$$,160,"[['Expensive but worth it', 'Best cocktail in Amsterdam'], ['01/05/2018', '12/06/2017']]",/Restaurant_Review-g188590-d696991-Reviews-Pulitzer_s_Bar-Amsterdam_North_Holland_Province.html,d696991,52.37294,4.88465
272,272,Dubbel Restaurant,Amsterdam,"['Dutch', 'Bar', 'European', 'Central European', 'Vegetarian Friendly']",273,4,$$ - $$$,392,"[['Great Food & Atmosphere', 'Classic and dependable'], ['10/20/2017', '10/15/2017']]",/Restaurant_Review-g188590-d1917187-Reviews-Dubbel_Restaurant-Amsterdam_North_Holland_Province.html,d1917187,40.79494,-73.96972
273,273,SLA Westerstraat,Amsterdam,"['European', 'Healthy', 'Vegetarian Friendly', 'Vegan Options', 'Gluten Free Options']",274,4.5,$$ - $$$,157,"[['Best salads I tried in Amsterdam', 'Wonderful salads!!!'], ['01/02/2018', '10/24/2017']]",/Restaurant_Review-g188590-d6575286-Reviews-SLA_Westerstraat-Amsterdam_North_Holland_Province.html,d6575286,52.37883,4.88529
274,274,Foodism,Amsterdam,"['Mediterranean', 'European', 'Vegetarian Friendly', 'Vegan Options', 'Gluten Free Options']",275,4.5,$$ - $$$,257,"[['Great Value Balkan Tapas', 'Well worth a visit'], ['12/21/2017', '12/10/2017']]",/Restaurant_Review-g188590-d3188413-Reviews-Foodism-Amsterdam_North_Holland_Province.html,d3188413,52.36774,4.9199
275,275,Sluizer Restaurants,Amsterdam,"['Dutch', 'Seafood', 'European', 'Vegetarian Friendly', 'Gluten Free Options']",276,4.5,$$ - $$$,466,"[['Impressive', 'What a fantastic place'], ['01/04/2018', '12/20/2017']]",/Restaurant_Review-g188590-d697020-Reviews-Sluizer_Restaurants-Amsterdam_North_Holland_Province.html,d697020,52.36431,4.89809
276,276,Bolenius,Amsterdam,"['Dutch', 'European', 'Vegetarian Friendly', 'Vegan Options', 'Gluten Free Options']",277,4.5,$$$$,212,"[['A star', 'Loved it! The restaurant deserves its Mich...'], ['11/23/2017', '10/21/2017']]",/Restaurant_Review-g188590-d2036882-Reviews-Bolenius-Amsterdam_North_Holland_Province.html,d2036882,52.33596,4.87366
277,277,Kessens,Amsterdam,"['Dutch', 'Cafe', 'European', 'International', 'Vegetarian Friendly', 'Vegan Options', 'Gluten Free Options']",278,4.5,$$ - $$$,118,"[['Should stop with my reviews', 'Very cosy Scandinavian bar'], ['01/03/2018', '12/29/2017']]",/Restaurant_Review-g188590-d7379042-Reviews-Kessens-Amsterdam_North_Holland_Province.html,d7379042,52.37373,4.88202
278,278,Burger Bar,Amsterdam,"['American', 'Fast Food']",279,4.5,$,323,"[['Spectacular Burgers', 'Excellent burger'], ['11/09/2017', '11/05/2017']]",/Restaurant_Review-g188590-d3541947-Reviews-Burger_Bar-Amsterdam_North_Holland_Province.html,d3541947,52.35515,4.89327
279,279,Cafe Hans en Grietje,Amsterdam,"['Dutch', 'Bar', 'Cafe', 'European', 'Pub', 'Vegetarian Friendly', 'Gluten Free Options']",280,4,$$ - $$$,349,"[['Nice cozy place', 'Casual outdoor dining.'], ['12/22/2017', '11/19/2017']]",/Restaurant_Review-g188590-d3595892-Reviews-Cafe_Hans_en_Grietje-Amsterdam_North_Holland_Province.html,d3595892,52.36183,4.88724
280,280,Eye,Amsterdam,"['Dutch', 'European', 'Contemporary', 'Vegetarian Friendly', 'Vegan Options', 'Gluten Free Options']",281,4,$$ - $$$,424,"[['Amazing location', 'Great dinner in stunning surroundings'], ['01/02/2018', '10/20/2017']]",/Restaurant_Review-g188590-d2659941-Reviews-Eye-Amsterdam_North_Holland_Province.html,d2659941,52.38419,4.90159
281,281,Taiko,Amsterdam,"['Japanese', 'Sushi', 'Asian', 'Fusion', 'Gluten Free Options', 'Vegetarian Friendly', 'Vegan Options']",282,4.5,$$$$,274,"[['Innovatively oriental', 'Excellent high class Asian food'], ['01/04/2018', '12/24/2017']]",/Restaurant_Review-g188590-d7074921-Reviews-Taiko-Amsterdam_North_Holland_Province.html,d7074921,52.35834,4.87903
282,282,Excalibur Cafe,Amsterdam,,283,4.5,,204,"[['Great bar', 'Old school metal music'], ['12/29/2017', '12/04/2017']]",/Restaurant_Review-g188590-d6848538-Reviews-Excalibur_Cafe-Amsterdam_North_Holland_Province.html,d6848538,52.37399,4.89948
