,Unnamed: 0,Name,City,CuisineStyle,Ranking,Rating,PriceRange,NumberofReviews,Reviews,URL_TA,ID_TA,lat,lng
2149,2149,Blauwe Draak,Amsterdam,['Asian'],2154,5,$$ - $$$,,"[['Amazing quality and tastes'], ['12/27/2017']]",/Restaurant_Review-g188590-d13008365-Reviews-Blauwe_Draak-Amsterdam_North_Holland_Province.html,d13008365,52.35531,4.86828
2150,2150,Robbie Brood en Tostie,Amsterdam,,2155,5,,2,"[['Quick lunch'], ['10/07/2015']]",/Restaurant_Review-g188590-d6527304-Reviews-Robbie_Brood_en_Tostie-Amsterdam_North_Holland_Province.html,d6527304,52.38077,4.88401
2151,2151,GOOD TO GO,Amsterdam,"['Healthy', 'Vegetarian Friendly', 'Vegan Options', 'Gluten Free Options']",2156,5,$,2,"[['Exceptional fresh food and coffee', 'Great Coffee & Healthy Takeaway'], ['03/08/2017', '11/23/2016']]",/Restaurant_Review-g188590-d10693381-Reviews-GOOD_TO_GO-Amsterdam_North_Holland_Province.html,d10693381,52.36882,4.871
2152,2152,Hilal Shoarma,Amsterdam,['Turkish'],2157,5,,,"[['Best kebab we had in amsterdam'], ['12/25/2017']]",/Restaurant_Review-g188590-d12622144-Reviews-Hilal_Shoarma-Amsterdam_North_Holland_Province.html,d12622144,52.37286,4.87854
2153,2153,Firma Stroop,Amsterdam,,2158,5,,,"[['Great small coffee house with fresh stroop...'], ['01/21/2016']]",/Restaurant_Review-g188590-d9767500-Reviews-Firma_Stroop-Amsterdam_North_Holland_Province.html,d9767500,52.3743,4.8905
2154,2154,Cafe Het Bruine Paard,Amsterdam,"['Dutch', 'European']",2159,5,$$ - $$$,,"[[], []]",/Restaurant_Review-g188590-d12641017-Reviews-Cafe_Het_Bruine_Paard-Amsterdam_North_Holland_Province.html,d12641017,52.37816,4.886
2155,2155,Eetcafe Noorderster,Amsterdam,,2160,5,,3,"[['cheap, friendly and dutch', ""Try the Nacho's""], ['02/17/2015', '02/23/2014']]",/Restaurant_Review-g188590-d6371837-Reviews-Eetcafe_Noorderster-Amsterdam_North_Holland_Province.html,d6371837,52.39001,4.88566
2156,2156,Calimero's,Amsterdam,,2161,5,,,"[['Delicious!'], ['04/30/2016']]",/Restaurant_Review-g188590-d10177682-Reviews-Calimero_s-Amsterdam_North_Holland_Province.html,d10177682,52.36792,4.87457
2157,2157,Cezanne,Amsterdam,,2162,5,,,"[['I absolutely love this place!!'], ['09/14/2017']]",/Restaurant_Review-g188590-d12903266-Reviews-Cezanne-Amsterdam_North_Holland_Province.html,d12903266,52.37452,4.89039
2158,2158,Vishandel Omaira Eiland,Amsterdam,,2163,5,,,"[['Best, freshest seafood grilled, sauteed, o...'], ['08/20/2017']]",/Restaurant_Review-g188590-d12825960-Reviews-Vishandel_Omaira_Eiland-Amsterdam_North_Holland_Province.html,d12825960,52.37836,4.84237
2159,2159,Eetcafe Dinges,Amsterdam,['International'],2164,5,$$ - $$$,2,"[[], []]",/Restaurant_Review-g188590-d13198128-Reviews-Eetcafe_Dinges-Amsterdam_North_Holland_Province.html,d13198128,52.36854,4.93535
2160,2160,Thuskomme,Amsterdam,['International'],2165,5,$$ - $$$,,"[['Superb'], ['01/30/2016']]",/Restaurant_Review-g188590-d8093432-Reviews-Thuskomme-Amsterdam_North_Holland_Province.html,d8093432,52.35935,4.93825
2161,2161,KTV Bar,Amsterdam,"['Bar', 'Pub']",2166,5,,2,"[['Nice karaoke bar!', 'Karaoke'], ['08/02/2017', '04/29/2017']]",/Restaurant_Review-g188590-d10459099-Reviews-KTV_Bar-Amsterdam_North_Holland_Province.html,d10459099,52.37603,4.8999
2162,2162,Brezel & Bratwurst,Amsterdam,,2167,5,,2,"[['Incredible little restaurant', 'Lucky Find!'], ['10/27/2015', '08/03/2015']]",/Restaurant_Review-g188590-d8504212-Reviews-Brezel_Bratwurst-Amsterdam_North_Holland_Province.html,d8504212,52.35155,4.89466
2163,2163,Local Hangout,Amsterdam,"['Mediterranean', 'Fusion']",2168,5,$$ - $$$,2,"[['Great Place for the Laid-Back', 'Gem'], ['12/06/2016', '10/08/2016']]",/Restaurant_Review-g188590-d10432821-Reviews-Local_Hangout-Amsterdam_North_Holland_Province.html,d10432821,52.37357,4.87504
2164,2164,Pizzeria Via Via,Amsterdam,,2169,5,,3,"[['Perfect', 'New owner new name: Sale e Pepe'], ['04/04/2017', '12/19/2016']]",/Restaurant_Review-g188590-d11666891-Reviews-Pizzeria_Via_Via-Amsterdam_North_Holland_Province.html,d11666891,52.35472,4.88909
2165,2165,Spaghetteria Olympiaplein,Amsterdam,['Italian'],2170,5,$$ - $$$,,"[[], []]",/Restaurant_Review-g188590-d13183971-Reviews-Spaghetteria_Olympiaplein-Amsterdam_North_Holland_Province.html,d13183971,52.34625,4.86684
2166,2166,Fusina of Amsterdam,Amsterdam,,2171,5,,,"[['Perfect time!'], ['12/21/2017']]",/Restaurant_Review-g188590-d13276872-Reviews-Fusina_of_Amsterdam-Amsterdam_North_Holland_Province.html,d13276872,52.36293,4.90189
2167,2167,Chasse Grand Cafe,Amsterdam,['International'],2172,5,$$ - $$$,,"[['Good for me, Good for my friends'], ['09/18/2017']]",/Restaurant_Review-g188590-d12874956-Reviews-Chasse_Grand_Cafe-Amsterdam_North_Holland_Province.html,d12874956,52.36968,4.86137
2168,2168,Resturant,Amsterdam,['Indian'],2173,5,,,"[[], []]",/Restaurant_Review-g188590-d6959833-Reviews-Resturant-Amsterdam_North_Holland_Province.html,d6959833,52.37511,4.89778
2169,2169,Bouchee,Amsterdam,['European'],2174,5,$$ - $$$,,"[[], []]",/Restaurant_Review-g188590-d12386020-Reviews-Bouchee-Amsterdam_North_Holland_Province.html,d12386020,52.35456,4.94133
2170,2170,Snack Bar Orion,Amsterdam,"['Dutch', 'European', 'Asian']",2175,5,,,"[['Snacks are mostly value for money'], ['11/21/2017']]",/Restaurant_Review-g188590-d13157518-Reviews-Snack_Bar_Orion-Amsterdam_North_Holland_Province.html,d13157518,52.41571,4.87934
2171,2171,Instock Toko,Amsterdam,,2176,5,,2,"[['A Home for Rescued Food', 'A great place to eat and do something good...'], ['09/02/2016', '08/31/2016']]",/Restaurant_Review-g188590-d8708371-Reviews-Instock_Toko-Amsterdam_North_Holland_Province.html,d8708371,52.35472,4.89038
2172,2172,Coffeemania Handel,Amsterdam,,2177,5,,2,"[['Great place, delicious food and excellent...', 'Certainly the best lunch place in this are...'], ['02/11/2016', '01/21/2016']]",/Restaurant_Review-g188590-d9762675-Reviews-Coffeemania_Handel-Amsterdam_North_Holland_Province.html,d9762675,52.3411,4.86362
2173,2173,Restaurant Biladi,Amsterdam,,2178,5,,,"[['Very good Moroccan food'], ['10/25/2016']]",/Restaurant_Review-g188590-d10071176-Reviews-Restaurant_Biladi-Amsterdam_North_Holland_Province.html,d10071176,52.37496,4.86076
2174,2174,Stag and Hen Party Amsterdam,Amsterdam,,2179,5,,,"[['Perfect Stag'], ['06/13/2015']]",/Restaurant_Review-g188590-d7139313-Reviews-Stag_and_Hen_Party_Amsterdam-Amsterdam_North_Holland_Province.html,d7139313,52.37263,4.89409
2175,2175,Haringstal De Zeevang,Amsterdam,,2180,5,,,"[[], []]",/Restaurant_Review-g188590-d10559287-Reviews-Haringstal_De_Zeevang-Amsterdam_North_Holland_Province.html,d10559287,52.37299,4.8907
2176,2176,Bogetta Dei Sapori Italiani,Amsterdam,"['Italian', 'Pizza']",2181,5,,2,"[['Birthday Perfection', 'Surprisingly good food in an unexpected lo...'], ['05/02/2017', '10/21/2014']]",/Restaurant_Review-g188590-d7164429-Reviews-Bogetta_Dei_Sapori_Italiani-Amsterdam_North_Holland_Province.html,d7164429,52.38684,4.92579
2177,2177,Grillroom De Molen,Amsterdam,['Grill'],2182,5,,4,"[['Good for lunch', 'Tasty Grill Room'], ['08/10/2014', '08/06/2014']]",/Restaurant_Review-g188590-d6109953-Reviews-Grillroom_De_Molen-Amsterdam_North_Holland_Province.html,d6109953,52.37335,4.90056
2178,2178,Dolce & Gelato,Amsterdam,,2183,5,,,"[['Amazing Crepes!'], ['12/27/2017']]",/Restaurant_Review-g188590-d13330238-Reviews-Dolce_Gelato-Amsterdam_North_Holland_Province.html,d13330238,52.372,4.89537
2179,2179,Het Stadspaleis,Amsterdam,['Healthy'],2184,5,,3,"[['Winter weekend in Amsterdam'], ['01/21/2016']]",/Restaurant_Review-g188590-d7215499-Reviews-Het_Stadspaleis-Amsterdam_North_Holland_Province.html,d7215499,52.37108,4.89085
2180,2180,Bistro Doner Amsterdam,Amsterdam,"['Pizza', 'Turkish', 'Vegetarian Friendly']",2185,5,$,,"[['Great food'], ['10/06/2015']]",/Restaurant_Review-g188590-d8501268-Reviews-Bistro_Doner_Amsterdam-Amsterdam_North_Holland_Province.html,d8501268,52.36826,4.87156
2181,2181,Boemboe Club,Amsterdam,"['Asian', 'Indonesian']",2186,5,$$ - $$$,,"[[], []]",/Restaurant_Review-g188590-d12461235-Reviews-Boemboe_Club-Amsterdam_North_Holland_Province.html,d12461235,52.35439,4.92017
2182,2182,Cafe Topido,Amsterdam,"['Dutch', 'European']",2187,5,,3,"[['Daily visitor!'], ['07/18/2016']]",/Restaurant_Review-g188590-d10506445-Reviews-Cafe_Topido-Amsterdam_North_Holland_Province.html,d10506445,52.36733,4.86696
2183,2183,Wok King,Amsterdam,['Chinese'],2188,5,,4,"[['Best noddles ever', 'Quick, fresh and tasty'], ['01/04/2016', '03/08/2014']]",/Restaurant_Review-g188590-d4591422-Reviews-Wok_King-Amsterdam_North_Holland_Province.html,d4591422,52.34571,4.90545
2184,2184,De Smaaksalon,Amsterdam,"['Italian', 'Mexican', 'Dutch', 'Mediterranean', 'European', 'Delicatessen']",2189,5,$,2,"[['Very Nice!!!'], ['06/15/2017']]",/Restaurant_Review-g188590-d12537824-Reviews-De_Smaaksalon-Amsterdam_North_Holland_Province.html,d12537824,52.35831,4.80092
2185,2185,A Piece Of Finland,Amsterdam,,2190,5,,,"[[""A highlight on Amsterdam's eclectic Haarle...""], ['01/17/2017']]",/Restaurant_Review-g188590-d12049003-Reviews-A_Piece_Of_Finland-Amsterdam_North_Holland_Province.html,d12049003,52.38261,4.88734
2186,2186,Mr & Mrs Frosty,Amsterdam,['Italian'],2191,5,$,,"[[], []]",/Restaurant_Review-g188590-d12357334-Reviews-Mr_Mrs_Frosty-Amsterdam_North_Holland_Province.html,d12357334,52.34935,4.93869
2187,2187,Super Ruys,Amsterdam,,2192,5,,,"[['Grocery store and fruit stand'], ['07/07/2015']]",/Restaurant_Review-g188590-d8499678-Reviews-Super_Ruys-Amsterdam_North_Holland_Province.html,d8499678,52.3543,4.88486
2188,2188,Molli Chaoot,Amsterdam,['Vegan Options'],2193,5,,,"[[], []]",/Restaurant_Review-g188590-d9708357-Reviews-Molli_Chaoot-Amsterdam_North_Holland_Province.html,d9708357,52.35189,4.88973
2189,2189,Broodje Menno,Amsterdam,"['French', 'German', 'Dutch', 'European']",2194,5,$,,"[['Only on Saturday, best brunch in Amsterdam...'], ['12/14/2017']]",/Restaurant_Review-g188590-d13223560-Reviews-Broodje_Menno-Amsterdam_North_Holland_Province.html,d13223560,52.33596,4.87129
2190,2190,Sloppy Joe,Amsterdam,"['American', 'Barbecue', 'Grill']",2195,5,,,"[[], []]",/Restaurant_Review-g188590-d13172217-Reviews-Sloppy_Joe-Amsterdam_North_Holland_Province.html,d13172217,52.34452,4.85824
2191,2191,Noodles & More,Amsterdam,,2196,5,,2,"[['Chicken-noodle- soup for the soul', 'Asian priced Heavenly Goodness in a bowl!'], ['10/15/2016', '09/23/2016']]",/Restaurant_Review-g188590-d11070605-Reviews-Noodles_More-Amsterdam_North_Holland_Province.html,d11070605,52.35355,4.84074
2192,2192,Gouden Tent,Amsterdam,['Middle Eastern'],2197,5,,2,"[[], []]",/Restaurant_Review-g188590-d5617899-Reviews-Gouden_Tent-Amsterdam_North_Holland_Province.html,d5617899,52.35091,4.85446
2193,2193,Sillers,Amsterdam,['Cafe'],2198,5,,,"[['Very good flat white here!'], ['11/02/2017']]",/Restaurant_Review-g188590-d12844146-Reviews-Sillers-Amsterdam_North_Holland_Province.html,d12844146,52.36759,4.90653
2194,2194,Dominos pizza,Amsterdam,['Pizza'],2199,5,$$ - $$$,,"[[], []]",/Restaurant_Review-g188590-d12072420-Reviews-Dominos_pizza-Amsterdam_North_Holland_Province.html,d12072420,52.37363,4.9384
2195,2195,Mediterrane,Amsterdam,['Cafe'],2200,5,,,"[[], []]",/Restaurant_Review-g188590-d10426150-Reviews-Mediterrane-Amsterdam_North_Holland_Province.html,d10426150,52.37545,4.89151
2196,2196,Toos&roos,Amsterdam,"['Dutch', 'European']",2201,5,,,"[[], []]",/Restaurant_Review-g188590-d13205852-Reviews-Toos_roos-Amsterdam_North_Holland_Province.html,d13205852,52.36929,4.89045
2197,2197,Bruno's,Amsterdam,['Cafe'],2202,5,,,"[['Amazing coffee'], ['08/05/2017']]",/Restaurant_Review-g188590-d12688730-Reviews-Bruno_s-Amsterdam_North_Holland_Province.html,d12688730,52.38097,4.88393
2198,2198,Eminonu Balikcisi,Amsterdam,['Seafood'],2203,5,$,4,"[['Excellent place', 'Great fish!'], ['01/09/2016', '01/09/2016']]",/Restaurant_Review-g188590-d8778853-Reviews-Eminonu_Balikcisi-Amsterdam_North_Holland_Province.html,d8778853,52.36993,4.90788
2199,2199,Tony Pizzas Pastas To Go,Amsterdam,['Italian'],2204,5,$$ - $$$,,"[['Finally an Italian restaurant run by a rea...'], ['12/08/2017']]",/Restaurant_Review-g188590-d13207195-Reviews-Tony_Pizzas_Pastas_To_Go-Amsterdam_North_Holland_Province.html,d13207195,52.3772,4.89504
2200,2200,Charley's,Amsterdam,,2205,5,,,"[['Amsterdam oasis for work or play'], ['06/19/2017']]",/Restaurant_Review-g188590-d12558907-Reviews-Charley_s-Amsterdam_North_Holland_Province.html,d12558907,52.3639,4.90412
2201,2201,High Snack,Amsterdam,"['Fast Food', 'Halal']",2206,5,$,,"[['Always good...'], ['10/03/2017']]",/Restaurant_Review-g188590-d10784345-Reviews-High_Snack-Amsterdam_North_Holland_Province.html,d10784345,52.37436,4.89716
2202,2202,Holland Amsterdam,Amsterdam,,2207,5,,2,"[['Holland Unspoiled Freshness', 'A creative find'], ['12/29/2017', '07/25/2016']]",/Restaurant_Review-g188590-d10629869-Reviews-Holland_Amsterdam-Amsterdam_North_Holland_Province.html,d10629869,52.36994,4.90788
2203,2203,Esther's Cookery,Amsterdam,,2208,5,,,"[[""Esther's Cookery in Amsterdam, worth a vis...""], ['08/07/2017']]",/Restaurant_Review-g188590-d12301154-Reviews-Esther_s_Cookery-Amsterdam_North_Holland_Province.html,d12301154,52.35524,4.88953
2204,2204,Van Velze's Chocolaterie,Amsterdam,['Delicatessen'],2209,5,,,"[[], []]",/Restaurant_Review-g188590-d12378267-Reviews-Van_Velze_s_Chocolaterie-Amsterdam_North_Holland_Province.html,d12378267,52.35566,4.90794
2205,2205,Thull's Amsterdam,Amsterdam,,2210,5,,,"[[], []]",/Restaurant_Review-g188590-d12043632-Reviews-Thull_s_Amsterdam-Amsterdam_North_Holland_Province.html,d12043632,52.37288,4.93856
2206,2206,Speciaalzaak Bio Bro's,Amsterdam,['International'],2211,5,,,"[['Very passionate biological take away and g...'], ['05/05/2016']]",/Restaurant_Review-g188590-d10269096-Reviews-Speciaalzaak_Bio_Bro_s-Amsterdam_North_Holland_Province.html,d10269096,52.37331,4.88031
2207,2207,De Kwaker,Amsterdam,,2212,5,,,"[[], []]",/Restaurant_Review-g188590-d9711570-Reviews-De_Kwaker-Amsterdam_North_Holland_Province.html,d9711570,52.37623,4.86742
2208,2208,Louise Banket en Bonbons,Amsterdam,,2213,5,,,"[['The Best Pastries In Amsterdam'], ['05/06/2017']]",/Restaurant_Review-g188590-d12403451-Reviews-Louise_Banket_en_Bonbons-Amsterdam_North_Holland_Province.html,d12403451,52.36352,4.87466
2209,2209,Inidan Express,Amsterdam,['Indian'],2214,5,,,"[['Indian food as it should be'], ['08/25/2015']]",/Restaurant_Review-g188590-d3736559-Reviews-Inidan_Express-Amsterdam_North_Holland_Province.html,d3736559,52.3606,4.86117
2210,2210,Croissanterie Chhiwat Bladi,Amsterdam,,2215,5,,,"[[], []]",/Restaurant_Review-g188590-d11760237-Reviews-Croissanterie_Chhiwat_Bladi-Amsterdam_North_Holland_Province.html,d11760237,52.35196,4.79985
2211,2211,Extra,Amsterdam,"['Belgian', 'Dutch', 'European']",2216,5,,,"[[], []]",/Restaurant_Review-g188590-d753138-Reviews-Extra-Amsterdam_North_Holland_Province.html,d753138,52.37665,4.88226
2212,2212,Her Royal Highness,Amsterdam,"['Asian', 'Indonesian']",2217,5,,,"[[], []]",/Restaurant_Review-g188590-d2141180-Reviews-Her_Royal_Highness-Amsterdam_North_Holland_Province.html,d2141180,52.38092,4.88851
2213,2213,Rianna & Friends,Amsterdam,"['Italian', 'French', 'Dutch', 'European']",2218,5,$,,"[['Great home made bites and delicious coffee...'], ['10/14/2017']]",/Restaurant_Review-g188590-d12967998-Reviews-Rianna_Friends-Amsterdam_North_Holland_Province.html,d12967998,52.3699,4.92923
2214,2214,Broodje Valk,Amsterdam,['Cafe'],2219,5,,,"[['Amazing breakfast!'], ['10/11/2017']]",/Restaurant_Review-g188590-d12967992-Reviews-Broodje_Valk-Amsterdam_North_Holland_Province.html,d12967992,52.37046,4.90884
2215,2215,Kims Burgers & Broodjes,Amsterdam,['Fast Food'],2220,5,,,"[[], []]",/Restaurant_Review-g188590-d12196301-Reviews-Kims_Burgers_Broodjes-Amsterdam_North_Holland_Province.html,d12196301,52.39082,4.91108
2216,2216,Sky Is Up,Amsterdam,,2221,5,,2,"[['Sadly Sky has stopped', 'Little local gem with goood sushi!'], ['10/18/2016', '08/28/2016']]",/Restaurant_Review-g188590-d10755599-Reviews-Sky_Is_Up-Amsterdam_North_Holland_Province.html,d10755599,52.37375,4.90234
2217,2217,viswinkel IJburg,Amsterdam,"['Dutch', 'European']",2222,5,,,"[[], []]",/Restaurant_Review-g188590-d12787225-Reviews-Viswinkel_IJburg-Amsterdam_North_Holland_Province.html,d12787225,52.35818,4.9899
2218,2218,New York Pizza,Amsterdam,,2223,5,,,"[['Love the pizza'], ['02/15/2017']]",/Restaurant_Review-g188590-d11912814-Reviews-New_York_Pizza-Amsterdam_North_Holland_Province.html,d11912814,52.36684,4.87256
2219,2219,Kilimanjaro Take me Away,Amsterdam,"['African', 'Ethiopian']",2224,5,$$ - $$$,,"[['Good and cosy place'], ['08/14/2017']]",/Restaurant_Review-g188590-d12710023-Reviews-Kilimanjaro_Take_me_Away-Amsterdam_North_Holland_Province.html,d12710023,52.35655,4.91852
2220,2220,Pacomer Traiteur,Amsterdam,['Spanish'],2225,5,$,5,"[['Little deli - authentic Spanish food'], ['02/04/2017']]",/Restaurant_Review-g188590-d3811900-Reviews-Pacomer_Traiteur-Amsterdam_North_Holland_Province.html,d3811900,52.35554,4.89098
2221,2221,Selam Afrika,Amsterdam,['International'],2226,5,,,"[['Wonderful service, great mix of Ethiopian...'], ['11/13/2017']]",/Restaurant_Review-g188590-d12709307-Reviews-Selam_Afrika-Amsterdam_North_Holland_Province.html,d12709307,52.36104,4.92849
2222,2222,Mahara,Amsterdam,,2227,5,,,"[['More than meets the eye'], ['01/06/2016']]",/Restaurant_Review-g188590-d9725939-Reviews-Mahara-Amsterdam_North_Holland_Province.html,d9725939,52.36998,4.86562
2223,2223,Quarto Gati,Amsterdam,['Italian'],2228,5,,,"[[], []]",/Restaurant_Review-g188590-d4736565-Reviews-Quarto_Gati-Amsterdam_North_Holland_Province.html,d4736565,52.37229,4.88656
2224,2224,Riko pa riko comida colombiana,Amsterdam,,2229,5,,,"[[], []]",/Restaurant_Review-g188590-d6691020-Reviews-Riko_pa_riko_comida_colombiana-Amsterdam_North_Holland_Province.html,d6691020,52.3667,4.89048
2225,2225,Palazzo,Amsterdam,['Delicatessen'],2230,5,,,"[[], []]",/Restaurant_Review-g188590-d4736382-Reviews-Palazzo-Amsterdam_North_Holland_Province.html,d4736382,52.31197,4.94135
2226,2226,2 Coffee & Such,Amsterdam,"['Dutch', 'European']",2231,5,$,,"[['Great coffee and breakfast'], ['12/02/2017']]",/Restaurant_Review-g188590-d13171238-Reviews-2_Coffee_Such-Amsterdam_North_Holland_Province.html,d13171238,52.38417,4.88456
2227,2227,Cafe Pico,Amsterdam,,2232,5,,,"[[], []]",/Restaurant_Review-g188590-d10470924-Reviews-Cafe_Pico-Amsterdam_North_Holland_Province.html,d10470924,52.36051,4.93652
2228,2228,Lo Sbrano,Amsterdam,['Italian'],2233,5,,,"[[""The best pizza I've had in awhile""], ['07/31/2017']]",/Restaurant_Review-g188590-d12527904-Reviews-Lo_Sbrano-Amsterdam_North_Holland_Province.html,d12527904,52.35671,4.91225
2229,2229,Broodjes en boontjes,Amsterdam,"['Dutch', 'Moroccan', 'Mediterranean', 'European']",2234,5,$,,"[[], []]",/Restaurant_Review-g188590-d12913411-Reviews-Broodjes_en_boontjes-Amsterdam_North_Holland_Province.html,d12913411,52.3516,4.84802
2230,2230,Locatie NRD,Amsterdam,['Italian'],2235,5,$$ - $$$,,"[[], []]",/Restaurant_Review-g188590-d12193318-Reviews-Locatie_NRD-Amsterdam_North_Holland_Province.html,d12193318,52.38965,4.90447
2231,2231,Simple Twist,Amsterdam,,2236,5,,,"[['Great a La Carte Restaurant'], ['07/16/2016']]",/Restaurant_Review-g188590-d10521562-Reviews-Simple_Twist-Amsterdam_North_Holland_Province.html,d10521562,52.37439,4.89143
2232,2232,Roebling's,Amsterdam,"['American', 'European']",2237,5,$$ - $$$,,"[['Amazing meal at hot new restaurant'], ['01/07/2018']]",/Restaurant_Review-g188590-d13290341-Reviews-Roebling_s-Amsterdam_North_Holland_Province.html,d13290341,52.36923,4.89157
2233,2233,Viswinkel Al Hoceima,Amsterdam,,2238,5,,2,"[['Best choice in the neighborhood', 'The best fish shop /restaurant in Amsterda...'], ['07/24/2016', '06/01/2016']]",/Restaurant_Review-g188590-d10392466-Reviews-Viswinkel_Al_Hoceima-Amsterdam_North_Holland_Province.html,d10392466,52.39178,4.92562
2234,2234,Viswinkel Peter Tol,Amsterdam,['Seafood'],2239,5,$$ - $$$,,"[[], []]",/Restaurant_Review-g188590-d12442411-Reviews-Viswinkel_Peter_Tol-Amsterdam_North_Holland_Province.html,d12442411,52.374,4.93712
2235,2235,Borrelbar,Amsterdam,['Pub'],2240,5,,,"[['Traditional Amsterdam Pub'], ['11/08/2017']]",/Restaurant_Review-g188590-d13118107-Reviews-Borrelbar-Amsterdam_North_Holland_Province.html,d13118107,52.34466,4.85817
2236,2236,Best Indonesian in de Pijp,Amsterdam,"['Asian', 'Indonesian']",2241,5,,,"[[], []]",/Restaurant_Review-g188590-d4117061-Reviews-Best_Indonesian_in_de_Pijp-Amsterdam_North_Holland_Province.html,d4117061,52.35181,4.88917
2237,2237,Il Pastificio,Amsterdam,,2242,5,,,"[['beautiful, fresh pasta made with care'], ['10/29/2016']]",/Restaurant_Review-g188590-d11754699-Reviews-Il_Pastificio-Amsterdam_North_Holland_Province.html,d11754699,52.35627,4.89755
2238,2238,Mr. Poli,Amsterdam,,2243,5,,,"[['Super tasty'], ['12/07/2017']]",/Restaurant_Review-g188590-d13228885-Reviews-Mr_Poli-Amsterdam_North_Holland_Province.html,d13228885,52.38536,4.88156
2239,2239,Eetcafe 100% Zuidoost,Amsterdam,"['Dutch', 'European']",2244,5,$$ - $$$,,"[['Multiculti music, eat and drink'], ['10/23/2016']]",/Restaurant_Review-g188590-d10262886-Reviews-Eetcafe_100_Zuidoost-Amsterdam_North_Holland_Province.html,d10262886,52.31509,4.95357
2240,2240,Amsterdam,Amsterdam,,2245,5,,,"[['Dream city üòä'], ['10/14/2017']]",/Restaurant_Review-g188590-d10725690-Reviews-Amsterdam-Amsterdam_North_Holland_Province.html,d10725690,52.36994,4.90788
2241,2241,Panzerotti,Amsterdam,['Italian'],2246,5,,2,"[['Delicious and very friendly man!'], ['08/28/2017']]",/Restaurant_Review-g188590-d12525563-Reviews-Panzerotti-Amsterdam_North_Holland_Province.html,d12525563,52.38864,4.8856
2242,2242,"MILF (Man, I Love Fish!)",Amsterdam,,2247,5,,,"[['Best Fish Tacos in Europe!'], ['03/13/2017']]",/Restaurant_Review-g188590-d11882190-Reviews-MILF_Man_I_Love_Fish-Amsterdam_North_Holland_Province.html,d11882190,52.38533,4.8687
2243,2243,Baklava,Amsterdam,,2248,5,,2,"[[], []]",/Restaurant_Review-g188590-d8821603-Reviews-Baklava-Amsterdam_North_Holland_Province.html,d8821603,52.36369,4.93414
2244,2244,Kanis & Meiland 3.0,Amsterdam,"['Dutch', 'Pub', 'Bar', 'European', 'Diner']",2249,4,$$ - $$$,27,"[['GREAT OMELETTE!', 'A great place, whatever the weather'], ['12/02/2017', '06/22/2017']]",/Restaurant_Review-g188590-d10047810-Reviews-Kanis_Meiland_3_0-Amsterdam_North_Holland_Province.html,d10047810,52.37632,4.94047
2245,2245,Americano Bar & Kitchen,Amsterdam,"['Italian', 'American', 'Seafood', 'European']",2250,4,$$ - $$$,39,"[['Lunch was fabulous', 'They know how to pamper big groups of peop...'], ['05/09/2016', '04/09/2016']]",/Restaurant_Review-g188590-d7342967-Reviews-Americano_Bar_Kitchen-Amsterdam_North_Holland_Province.html,d7342967,52.36317,4.87965
2246,2246,Doner palace,Amsterdam,['Middle Eastern'],2251,4.5,,3,"[['Good fast food'], ['01/01/2018']]",/Restaurant_Review-g188590-d12827734-Reviews-Doner_palace-Amsterdam_North_Holland_Province.html,d12827734,52.37332,4.88035
2247,2247,Il Pecorino,Amsterdam,"['Italian', 'Pizza', 'Mediterranean', 'Vegetarian Friendly']",2252,3.5,$$ - $$$,26,"[['Worth crossing the ""IJ""', 'A busy restaurant north of the IJ river'], ['08/21/2017', '02/26/2017']]",/Restaurant_Review-g188590-d12068370-Reviews-Il_Pecorino-Amsterdam_North_Holland_Province.html,d12068370,52.38115,4.9131
2248,2248,Hunkar Restaurant,Amsterdam,['Turkish'],2253,4.5,,5,"[['Delicious', 'Food is always good!'], ['10/12/2017', '05/11/2016']]",/Restaurant_Review-g188590-d9717657-Reviews-Hunkar_Restaurant-Amsterdam_North_Holland_Province.html,d9717657,52.37836,4.80106
2249,2249,Emmanuel's Snack Bar,Amsterdam,['Mexican'],2254,4.5,,4,"[['Great Fast Food'], ['01/20/2015']]",/Restaurant_Review-g188590-d4505789-Reviews-Emmanuel_s_Snack_Bar-Amsterdam_North_Holland_Province.html,d4505789,52.36591,4.89757
2250,2250,The Rough Kitchen,Amsterdam,"['American', 'Dutch', 'Barbecue', 'European']",2255,4.5,,4,"[['Pulled pork lunch', 'Good meat platter'], ['09/29/2017', '09/26/2017']]",/Restaurant_Review-g188590-d12927644-Reviews-The_Rough_Kitchen-Amsterdam_North_Holland_Province.html,d12927644,52.36784,4.86789
2251,2251,Restaurant Bloesem,Amsterdam,['European'],2256,4.5,,22,"[['Artsy meal a bit off the beaten path', 'Great concept and even better food'], ['01/25/2016', '04/21/2015']]",/Restaurant_Review-g188590-d2325119-Reviews-Restaurant_Bloesem-Amsterdam_North_Holland_Province.html,d2325119,40.79494,-73.96972
2252,2252,Strandzuid,Amsterdam,"['Dutch', 'Bar', 'European', 'Pub', 'International', 'Fusion', 'Vegetarian Friendly']",2257,3.5,$$ - $$$,69,"[[""Life's a Beach!"", 'Beautiful place, average food, slow servic...'], ['08/07/2017', '06/27/2017']]",/Restaurant_Review-g188590-d7235831-Reviews-Strandzuid-Amsterdam_North_Holland_Province.html,d7235831,52.34099,4.88997
2253,2253,Bar Wisse,Amsterdam,,2258,4.5,,5,"[['Nice neighborhood place', 'Great place!'], ['09/07/2017', '06/10/2017']]",/Restaurant_Review-g188590-d11646231-Reviews-Bar_Wisse-Amsterdam_North_Holland_Province.html,d11646231,52.35529,4.9289
2254,2254,Restaurant Riaz,Amsterdam,,2259,4,,15,"[['Lack of waiters...slow and uninterested se...', 'Was nice!'], ['09/10/2016', '03/27/2016']]",/Restaurant_Review-g188590-d5267806-Reviews-Restaurant_Riaz-Amsterdam_North_Holland_Province.html,d5267806,52.36657,4.87275
2255,2255,Bar Leijten,Amsterdam,['French'],2260,4.5,,4,"[['Local dinner', 'Top service and very friendly'], ['10/10/2017', '08/30/2017']]",/Restaurant_Review-g188590-d12709215-Reviews-Bar_Leijten-Amsterdam_North_Holland_Province.html,d12709215,52.35198,4.85296
2256,2256,Cafe Mulder,Amsterdam,['Cafe'],2261,4.5,$,10,"[['Great place to relax and take time out', 'Cozy place'], ['11/25/2017', '10/02/2017']]",/Restaurant_Review-g188590-d12229464-Reviews-Cafe_Mulder-Amsterdam_North_Holland_Province.html,d12229464,52.35962,4.89156
2257,2257,shisha,Amsterdam,"['Mediterranean', 'Egyptian']",2262,4.5,,4,"[['Good shisha', 'Best shisha'], ['09/24/2017', '12/29/2016']]",/Restaurant_Review-g188590-d6690697-Reviews-Shisha-Amsterdam_North_Holland_Province.html,d6690697,52.36527,4.92599
2258,2258,Bar-Restaurant Londen,Amsterdam,"['European', 'Seafood', 'International', 'British', 'Diner']",2263,4,$$ - $$$,40,"[['fine', 'Dutch Fishermens soup'], ['04/26/2017', '04/20/2017']]",/Restaurant_Review-g188590-d3588977-Reviews-Bar_Restaurant_Londen-Amsterdam_North_Holland_Province.html,d3588977,52.38419,4.90159
2259,2259,Yogya,Amsterdam,"['Asian', 'Indonesian']",2264,4.5,$,14,"[['Great Indonesian food in a homey atmospher...', 'Worst service ever, bland food'], ['11/13/2017', '07/09/2016']]",/Restaurant_Review-g188590-d3632913-Reviews-Yogya-Amsterdam_North_Holland_Province.html,d3632913,52.35964,4.82713
2260,2260,Meer Dan Vis,Amsterdam,"['Dutch', 'Seafood', 'Delicatessen', 'Street Food']",2265,4.5,$,10,"[['Great cod bites', 'Battered cod was great!'], ['02/21/2017', '12/10/2016']]",/Restaurant_Review-g188590-d7216282-Reviews-Meer_Dan_Vis-Amsterdam_North_Holland_Province.html,d7216282,52.39247,4.9342
2261,2261,Studio K,Amsterdam,"['Bar', 'European', 'Dutch', 'Vegetarian Friendly']",2266,4,$$ - $$$,52,"[['Renovation is a disaster', 'Nice meal, but noise levels were something...'], ['04/21/2017', '02/27/2017']]",/Restaurant_Review-g188590-d2081276-Reviews-Studio_K-Amsterdam_North_Holland_Province.html,d2081276,52.36556,4.9356
2262,2262,Suzy Wong,Amsterdam,['International'],2267,4,$$ - $$$,18,"[['Amazing place to visit 1 of the best hidde...', 'Nice but small'], ['11/18/2016', '11/16/2016']]",/Restaurant_Review-g188590-d3360506-Reviews-Suzy_Wong-Amsterdam_North_Holland_Province.html,d3360506,52.36479,4.8825
2263,2263,TonTon Club West,Amsterdam,"['Japanese', 'Asian', 'Bar', 'Fusion']",2268,4,$$ - $$$,29,"[['Great on a wintery day', 'Fun games and nice food!'], ['12/11/2017', '07/13/2017']]",/Restaurant_Review-g188590-d8821691-Reviews-TonTon_Club_West-Amsterdam_North_Holland_Province.html,d8821691,52.38564,4.86615
2264,2264,Issa,Amsterdam,"['Japanese', 'Asian', 'Sushi']",2269,4,$$ - $$$,26,"[['Good sushi from an Indian sushi chef!', 'Rediculous'], ['12/19/2016', '10/15/2016']]",/Restaurant_Review-g188590-d1117095-Reviews-Issa-Amsterdam_North_Holland_Province.html,d1117095,52.36994,4.90788
2265,2265,The Infinity Kitchen,Amsterdam,"['Steakhouse', 'Asian', 'British', 'Indonesian', 'Moroccan']",2270,4.5,$$ - $$$,4,"[['Good food tor cheap', 'A nice surprise'], ['12/19/2017', '07/31/2017']]",/Restaurant_Review-g188590-d10845254-Reviews-The_Infinity_Kitchen-Amsterdam_North_Holland_Province.html,d10845254,52.36463,4.86203
2266,2266,Bar James,Amsterdam,"['International', 'Dutch', 'Vegetarian Friendly']",2271,4,$$ - $$$,16,"[['Cozy', 'Great looking food!'], ['07/30/2017', '03/26/2017']]",/Restaurant_Review-g188590-d10920368-Reviews-Bar_James-Amsterdam_North_Holland_Province.html,d10920368,42.93592,-74.17818
2267,2267,Pasta Vino,Amsterdam,"['Italian', 'Mediterranean', 'Pizza', 'European', 'Vegetarian Friendly']",2272,4,$$ - $$$,31,"[['Nice dinner', 'Great food and lovely service'], ['07/11/2017', '07/10/2017']]",/Restaurant_Review-g188590-d3655225-Reviews-Pasta_Vino-Amsterdam_North_Holland_Province.html,d3655225,52.3661,4.91146
2268,2268,Cafe Primo,Amsterdam,"['Italian', 'Bar', 'Contemporary', 'Pub', 'Vegetarian Friendly', 'Vegan Options']",2273,5,$$ - $$$,15,"[['Only pizzas', 'Excellent'], ['09/03/2017', '05/30/2016']]",/Restaurant_Review-g188590-d9699303-Reviews-Cafe_Primo-Amsterdam_North_Holland_Province.html,d9699303,39.29123,9.09671
2269,2269,Muang Thai,Amsterdam,['Thai'],2274,4,$,18,"[['Great Thai food!', 'Cosy thai food'], ['07/08/2017', '06/18/2017']]",/Restaurant_Review-g188590-d4328775-Reviews-Muang_Thai-Amsterdam_North_Holland_Province.html,d4328775,52.35863,4.85901
2270,2270,Ice & Bites,Amsterdam,"['Pizza', 'Grill']",2276,4.5,$,13,"[['Not bad at all', 'Nice food, decent price'], ['06/06/2017', '08/28/2016']]",/Restaurant_Review-g188590-d4941051-Reviews-Ice_Bites-Amsterdam_North_Holland_Province.html,d4941051,52.36987,4.85136
2271,2271,Hendriks II Pop-Up,Amsterdam,,2277,4.5,,11,"[['Good food nice location', 'Great for breakfast'], ['10/15/2015', '09/17/2015']]",/Restaurant_Review-g188590-d7928527-Reviews-Hendriks_II_Pop_Up-Amsterdam_North_Holland_Province.html,d7928527,52.3748,4.9046
2272,2272,piri reis cafe,Amsterdam,"['Cafe', 'Mediterranean', 'Turkish']",2278,5,$$ - $$$,8,"[['Very friendly and good food', 'Delicious!'], ['07/05/2016', '05/02/2016']]",/Restaurant_Review-g188590-d7737247-Reviews-Piri_reis_cafe-Amsterdam_North_Holland_Province.html,d7737247,52.36556,4.86049
2273,2273,Casa Food,Amsterdam,['Mediterranean'],2279,5,$,11,"[['Awesome relaxed place', 'Feels like home'], ['06/07/2015', '06/03/2015']]",/Restaurant_Review-g188590-d6634996-Reviews-Casa_Food-Amsterdam_North_Holland_Province.html,d6634996,52.35459,4.8878
2274,2274,Buurtboerderij Ons Genoegen,Amsterdam,,2280,4.5,,11,"[[""Don't expect anything fancy"", 'Not to be missed.'], ['02/13/2017', '02/11/2017']]",/Restaurant_Review-g188590-d8829721-Reviews-Buurtboerderij_Ons_Genoegen-Amsterdam_North_Holland_Province.html,d8829721,52.39142,4.86031
2275,2275,Indonesia Permai,Amsterdam,"['Asian', 'Indonesian']",2281,4.5,,3,"[['New name, same excellent food', 'Authentic Indonesian restaurant'], ['08/16/2017', '08/16/2017']]",/Restaurant_Review-g188590-d12811740-Reviews-Indonesia_Permai-Amsterdam_North_Holland_Province.html,d12811740,52.36078,4.82709
2276,2276,Het Melkmeisje,Amsterdam,"['European', 'Dutch']",2282,4,$$ - $$$,123,"[['Okay - Christmas Dinner', 'Informal and nice atmosphere.'], ['01/04/2018', '09/28/2017']]",/Restaurant_Review-g188590-d1596781-Reviews-Het_Melkmeisje-Amsterdam_North_Holland_Province.html,d1596781,52.3759,4.90053
2277,2277,Sushi Kings,Amsterdam,,2283,4.5,,9,"[['Excellent delivery', 'Some fish were good, others not so good'], ['12/06/2016', '08/21/2016']]",/Restaurant_Review-g188590-d8497182-Reviews-Sushi_Kings-Amsterdam_North_Holland_Province.html,d8497182,52.35058,4.86021
2278,2278,Dun Yong,Amsterdam,,2284,4.5,,3,"[['Great Cooking School, Great Meal'], ['09/05/2017']]",/Restaurant_Review-g188590-d12654249-Reviews-Dun_Yong-Amsterdam_North_Holland_Province.html,d12654249,52.3743,4.9009
2279,2279,Amsterdamsche Vischandel,Amsterdam,,2285,4.5,,6,"[['Nice food ! Like masterchef', 'Super'], ['12/04/2016', '10/18/2016']]",/Restaurant_Review-g188590-d10065467-Reviews-Amsterdamsche_Vischandel-Amsterdam_North_Holland_Province.html,d10065467,52.37323,4.90025
2280,2280,Cafe De Gouden Florijn,Amsterdam,['Cafe'],2286,4.5,$$ - $$$,21,"[['Great traditional bar', 'Cozy place!'], ['09/24/2017', '03/05/2017']]",/Restaurant_Review-g188590-d3691724-Reviews-Cafe_De_Gouden_Florijn-Amsterdam_North_Holland_Province.html,d3691724,52.37366,4.88178
2281,2281,Ristorante L'Arco,Amsterdam,"['Italian', 'Pizza', 'Mediterranean', 'European']",2287,4,$$ - $$$,48,"[['Nice food', 'Tasteless pizza'], ['05/15/2016', '11/20/2015']]",/Restaurant_Review-g188590-d6956065-Reviews-Ristorante_L_Arco-Amsterdam_North_Holland_Province.html,d6956065,52.36525,4.88568
2282,2282,"Steakhouse ""Maximas""",Amsterdam,,2288,4,,7,"[['Great!', 'disappointing'], ['09/10/2017', '06/07/2017']]",/Restaurant_Review-g188590-d12451221-Reviews-Steakhouse_Maximas-Amsterdam_North_Holland_Province.html,d12451221,52.37431,4.90045
2283,2283,Takara,Amsterdam,"['Japanese', 'Sushi', 'Asian', 'Seafood']",2289,4,$$ - $$$,26,"[['Mwah...', 'beautifully presented delicious food'], ['11/11/2016', '09/29/2016']]",/Restaurant_Review-g188590-d3931097-Reviews-Takara-Amsterdam_North_Holland_Province.html,d3931097,52.34366,4.89151
2284,2284,Suri Kitchen,Amsterdam,,2290,4.5,,3,"[['best saoto soup ever', 'Perfect for takeaway'], ['10/26/2017', '06/24/2017']]",/Restaurant_Review-g188590-d12151394-Reviews-Suri_Kitchen-Amsterdam_North_Holland_Province.html,d12151394,52.38286,4.87756
2285,2285,Lunchroom Sapp,Amsterdam,,2291,5,,5,"[['Great food!', 'Beautiful food!'], ['10/14/2015', '04/28/2015']]",/Restaurant_Review-g188590-d6205452-Reviews-Lunchroom_Sapp-Amsterdam_North_Holland_Province.html,d6205452,52.37428,4.8927
2286,2286,Chutima's,Amsterdam,"['Asian', 'Thai', 'Vegetarian Friendly']",2292,4,$$ - $$$,66,"[['Great Food', 'Decent Local Thai'], ['10/13/2017', '08/15/2017']]",/Restaurant_Review-g188590-d2077177-Reviews-Chutima_s-Amsterdam_North_Holland_Province.html,d2077177,52.34476,4.8908
2287,2287,A Tavola,Amsterdam,"['Italian', 'European', 'Mediterranean']",2293,3.5,$$ - $$$,101,"[['Ok food ok service', 'Last-minute dinner on day 1'], ['04/01/2017', '03/11/2017']]",/Restaurant_Review-g188590-d696873-Reviews-A_Tavola-Amsterdam_North_Holland_Province.html,d696873,52.37033,4.91211
2288,2288,Cafe de Westerdok,Amsterdam,,2294,4.5,,9,"[['Quick Pint', 'off the beaten track ..'], ['02/24/2017', '09/04/2016']]",/Restaurant_Review-g188590-d8510349-Reviews-Cafe_de_Westerdok-Amsterdam_North_Holland_Province.html,d8510349,52.38077,4.88892
2289,2289,Citea Amsterdam,Amsterdam,,2295,5,,11,"[['Great selection from a tea enthusiast', 'Oh the blessing!'], ['12/03/2014', '10/08/2014']]",/Restaurant_Review-g188590-d6561685-Reviews-Citea_Amsterdam-Amsterdam_North_Holland_Province.html,d6561685,52.37852,4.88632
2290,2290,Lunchroom Amarylles,Amsterdam,"['Cafe', 'European', 'Vegetarian Friendly']",2296,3.5,$$ - $$$,128,"[['Nice place', 'Cheer up waiter'], ['12/16/2017', '11/02/2017']]",/Restaurant_Review-g188590-d2188243-Reviews-Lunchroom_Amarylles-Amsterdam_North_Holland_Province.html,d2188243,52.3667,4.89222
2291,2291,Amsterdam,Amsterdam,,2297,4.5,,3,"[[], []]",/Restaurant_Review-g188590-d12623505-Reviews-Amsterdam-Amsterdam_North_Holland_Province.html,d12623505,52.36994,4.90788
2292,2292,San Remo,Amsterdam,"['Italian', 'Pizza', 'Mediterranean']",2298,4.5,$$ - $$$,23,"[['Authentic Italian experience in Amsterdam', 'Una bella serrata Italiana con Pesce Fresc...'], ['06/08/2016', '04/20/2016']]",/Restaurant_Review-g188590-d753168-Reviews-San_Remo-Amsterdam_North_Holland_Province.html,d753168,52.39181,4.91394
2293,2293,Renato's Osteria,Amsterdam,['Italian'],2299,4,$$ - $$$,14,"[['Def gonna come back!', 'Long wait, crummy food, and high price.'], ['11/27/2017', '08/19/2017']]",/Restaurant_Review-g188590-d10842184-Reviews-Renato_s_Osteria-Amsterdam_North_Holland_Province.html,d10842184,52.35155,4.89499
2294,2294,Cafe Overtoom,Amsterdam,,2300,4,,9,"[['Friendly neighborhood bar', 'Great lunch'], ['12/29/2016', '11/12/2016']]",/Restaurant_Review-g188590-d10433257-Reviews-Cafe_Overtoom-Amsterdam_North_Holland_Province.html,d10433257,52.36167,4.85318
2295,2295,Blinq,Amsterdam,"['European', 'Bar', 'Pub']",2301,3.5,$$ - $$$,118,"[['Nice burgers', 'Breakfast'], ['01/31/2017', '10/29/2016']]",/Restaurant_Review-g188590-d2179738-Reviews-Blinq-Amsterdam_North_Holland_Province.html,d2179738,52.36363,4.88329
2296,2296,SLA Haarlemmerdijk,Amsterdam,"['Dutch', 'European', 'Healthy']",2302,4.5,$,3,"[['Very generous portion of salad for price'], ['09/10/2017']]",/Restaurant_Review-g188590-d12691019-Reviews-SLA_Haarlemmerdijk-Amsterdam_North_Holland_Province.html,d12691019,52.38227,4.88793
2297,2297,Pezzo di Pizza,Amsterdam,,2303,4.5,,3,"[['üëåüèªüëåüèªüëåüèª'], ['12/27/2016']]",/Restaurant_Review-g188590-d11843790-Reviews-Pezzo_di_Pizza-Amsterdam_North_Holland_Province.html,d11843790,52.37617,4.89538
2298,2298,Mehtap,Amsterdam,"['Turkish', 'Mediterranean']",2304,4,$,10,"[['Nice Turkish place', 'Very nice place where you can enjoy very g...'], ['04/08/2017', '02/06/2017']]",/Restaurant_Review-g188590-d1402255-Reviews-Mehtap-Amsterdam_North_Holland_Province.html,d1402255,52.37096,4.86278
2299,2299,saltinbocca,Amsterdam,"['Italian', 'Mediterranean', 'Pub', 'Gastropub', 'Street Food', 'Pizza', 'Vegetarian Friendly']",2305,5,$,14,"[['Excellent!', 'Italian food'], ['09/30/2016', '09/19/2016']]",/Restaurant_Review-g188590-d10428377-Reviews-Saltinbocca-Amsterdam_North_Holland_Province.html,d10428377,52.35479,4.89347
2300,2300,Taste of Life Indonesische & Maleisische Restaurant,Amsterdam,"['Asian', 'Indonesian']",2306,4.5,$$ - $$$,20,"[['Wonderful Indonesian food, lovely service.', 'Friendly service with great ""Rice Table"" d...'], ['02/12/2017', '10/23/2015']]",/Restaurant_Review-g188590-d1133896-Reviews-Taste_of_Life_Indonesische_Maleisische_Restaurant-Amsterdam_North_Holland_Provinc.html,d1133896,38.89037,-77.03196
2301,2301,Cafe Restaurant Plein 40-45,Amsterdam,"['Steakhouse', 'Dutch', 'Moroccan', 'Mediterranean', 'European', 'Turkish', 'Grill']",2307,4.5,,3,"[['So good', 'Great Little Gem'], ['06/04/2017', '05/21/2017']]",/Restaurant_Review-g188590-d9610057-Reviews-Cafe_Restaurant_Plein_40_45-Amsterdam_North_Holland_Province.html,d9610057,40.83779,-73.93843
2302,2302,Bar Dk,Amsterdam,,2308,5,,8,"[['My favorite place in Amsterdam!', 'Great place!'], ['09/01/2015', '08/18/2015']]",/Restaurant_Review-g188590-d8384530-Reviews-Bar_Dk-Amsterdam_North_Holland_Province.html,d8384530,52.36475,4.87753
2303,2303,Hotel Old Quarter,Amsterdam,"['Bar', 'European', 'Pub']",2309,3.5,$$ - $$$,65,"[['Old Quarter', ""Don't worry about staying here""], ['08/03/2017', '02/12/2017']]",/Restaurant_Review-g188590-d3242830-Reviews-Hotel_Old_Quarter-Amsterdam_North_Holland_Province.html,d3242830,52.3759,4.89892
2304,2304,PARK cafe-restaurant,Amsterdam,"['European', 'Vegetarian Friendly']",2310,3.5,$$ - $$$,31,"[['Great food, great atmosphere, a little pri...', 'Good atmosphere and tartines are worth the...'], ['11/14/2017', '10/03/2017']]",/Restaurant_Review-g188590-d11914804-Reviews-PARK_cafe_restaurant-Amsterdam_North_Holland_Province.html,d11914804,52.36068,4.91573
2305,2305,da portare VIA Willemsparkweg,Amsterdam,"['European', 'Pizza', 'Italian']",2311,3.5,$$ - $$$,24,"[['Must try for delicious pizzas', 'Good Pizza in the Neighborhood'], ['11/03/2017', '07/10/2017']]",/Restaurant_Review-g188590-d8806623-Reviews-Da_portare_VIA_Willemsparkweg-Amsterdam_North_Holland_Province.html,d8806623,52.35611,4.87099
2306,2306,Mari Rasa,Amsterdam,"['Asian', 'Indonesian']",2312,4.5,,2,"[[], []]",/Restaurant_Review-g188590-d7078154-Reviews-Mari_Rasa-Amsterdam_North_Holland_Province.html,d7078154,52.3777,4.811
2307,2307,Robin Food,Amsterdam,"['Vegetarian Friendly', 'Vegan Options']",2313,4.5,,6,"[['Wonderful 3 course middle eastern veggie m...', 'Yam! Delicious good food, organic, vegan...'], ['11/28/2017', '10/19/2014']]",/Restaurant_Review-g188590-d7243251-Reviews-Robin_Food-Amsterdam_North_Holland_Province.html,d7243251,52.37423,4.87258
2308,2308,Bella Vista,Amsterdam,"['Italian', 'European', 'Mediterranean', 'Vegetarian Friendly', 'Gluten Free Options']",2314,3.5,$$ - $$$,118,"[['Above average neighborhood Italian Restaur...', 'Nice wining and dining inside and outside.'], ['08/15/2017', '07/24/2017']]",/Restaurant_Review-g188590-d753288-Reviews-Bella_Vista-Amsterdam_North_Holland_Province.html,d753288,52.35381,4.86968
2309,2309,De huiskamer van Rembrandt,Amsterdam,,2315,4.5,,3,"[['Lovely new spot', 'ideal to regenerate'], ['10/14/2017', '02/10/2017']]",/Restaurant_Review-g188590-d12141013-Reviews-De_huiskamer_van_Rembrandt-Amsterdam_North_Holland_Province.html,d12141013,52.36494,4.85053
2310,2310,Cafe Vrijburcht,Amsterdam,"['French', 'Dutch', 'European']",2316,4.5,$$ - $$$,25,"[['Nice outdoor seating', 'We love it'], ['07/10/2017', '07/22/2016']]",/Restaurant_Review-g188590-d810289-Reviews-Cafe_Vrijburcht-Amsterdam_North_Holland_Province.html,d810289,52.36107,4.97587
2311,2311,The Italian Bistro Project,Amsterdam,,2317,4.5,,3,"[['Best of the best', 'Charming, Family Run Italian'], ['08/15/2017', '03/24/2017']]",/Restaurant_Review-g188590-d12387762-Reviews-The_Italian_Bistro_Project-Amsterdam_North_Holland_Province.html,d12387762,52.35671,4.92732
2312,2312,Italiaans Eetcafe I Trulli,Amsterdam,"['Italian', 'Mediterranean', 'European', 'Pizza', 'Vegetarian Friendly']",2318,4,$$ - $$$,29,"[['our 46th anniversary dinner away from home...', 'Great place'], ['08/08/2017', '05/26/2017']]",/Restaurant_Review-g188590-d753239-Reviews-Italiaans_Eetcafe_I_Trulli-Amsterdam_North_Holland_Province.html,d753239,52.34451,4.9059
2313,2313,Lagonda,Amsterdam,['Italian'],2319,4.5,$$ - $$$,7,"[['Over 25 years', 'Hidden Gem'], ['11/01/2017', '05/03/2016']]",/Restaurant_Review-g188590-d753143-Reviews-Lagonda-Amsterdam_North_Holland_Province.html,d753143,52.37224,4.87895
2314,2314,Promenade,Amsterdam,['European'],2320,4,,22,"[['summer dining outside', 'Great experience with High tea'], ['09/24/2017', '08/27/2017']]",/Restaurant_Review-g188590-d4790003-Reviews-Promenade-Amsterdam_North_Holland_Province.html,d4790003,52.36773,4.89424
2315,2315,Ikea Amsterdam Z.O.,Amsterdam,"['Swedish', 'Scandinavian', 'Fast Food', 'European', 'Vegetarian Friendly']",2321,3.5,$,53,"[['ATTENTION Australians and kiwis!! This pla...', 'OK meal'], ['05/07/2017', '04/02/2017']]",/Restaurant_Review-g188590-d746777-Reviews-Ikea_Amsterdam_Z_O-Amsterdam_North_Holland_Province.html,d746777,52.30324,4.94895
2316,2316,Downtown American Diner,Amsterdam,"['American', 'Bar', 'Pub']",2322,3.5,$,100,"[['Ten year wait for the food!!!', 'Decent lunchtime food'], ['01/01/2018', '09/15/2017']]",/Restaurant_Review-g188590-d3589664-Reviews-Downtown_American_Diner-Amsterdam_North_Holland_Province.html,d3589664,52.37542,4.89824
2317,2317,Gustafson,Amsterdam,"['European', 'French', 'Dutch', 'Bar', 'International', 'Pub', 'Central European', 'Vegetarian Friendly']",2323,4,$$ - $$$,28,"[['Extremely poor service', 'A great experience'], ['08/29/2016', '08/26/2016']]",/Restaurant_Review-g188590-d8651252-Reviews-Gustafson-Amsterdam_North_Holland_Province.html,d8651252,52.36994,4.90788
2318,2318,Semmy's,Amsterdam,['Asian'],2324,5,$,10,"[['Always go back here every trip to Amsterda...', 'Super good and enjoyable!'], ['07/28/2013', '02/18/2013']]",/Restaurant_Review-g188590-d2306835-Reviews-Semmy_s-Amsterdam_North_Holland_Province.html,d2306835,38.89037,-77.03196
2319,2319,Restaurant Biladi,Amsterdam,,2325,4.5,,8,"[['A good place for some morocco food!'], ['05/05/2015']]",/Restaurant_Review-g188590-d8040803-Reviews-Restaurant_Biladi-Amsterdam_North_Holland_Province.html,d8040803,52.37496,4.86076
2320,2320,"Olie & zo, Eten en Drinken",Amsterdam,['Mediterranean'],2326,4.5,$$ - $$$,6,"[['Nice Place', 'Splendid evening!'], ['03/30/2017', '12/19/2016']]",/Restaurant_Review-g188590-d11726594-Reviews-Olie_zo_Eten_en_Drinken-Amsterdam_North_Holland_Province.html,d11726594,52.37126,4.93139
2321,2321,Brouwerij Troost Oost,Amsterdam,"['American', 'Dutch', 'Bar', 'European', 'Pub']",2327,4,$$ - $$$,6,"[['Relaxed place with basic good food', 'Disappointed'], ['12/05/2017', '12/05/2017']]",/Restaurant_Review-g188590-d12950697-Reviews-Brouwerij_Troost_Oost-Amsterdam_North_Holland_Province.html,d12950697,52.38622,4.87282
2322,2322,Cafe Sarphaat,Amsterdam,"['Bar', 'Dutch', 'Cafe', 'International', 'European']",2328,3.5,$$ - $$$,76,"[['Food was good, service decent', 'Good Location'], ['11/06/2017', '07/11/2017']]",/Restaurant_Review-g188590-d2216432-Reviews-Cafe_Sarphaat-Amsterdam_North_Holland_Province.html,d2216432,52.3543,4.89927
2323,2323,Japanse Winkel Dank-Atariya Horeca,Amsterdam,,2329,4,,6,"[['Good range of Japanese products.', 'Not as good as expected'], ['03/13/2017', '05/03/2017']]",/Restaurant_Review-g188590-d10686248-Reviews-Japanse_Winkel_Dank_Atariya_Horeca-Amsterdam_North_Holland_Province.html,d10686248,52.32578,4.87113
2324,2324,Silverscreen,Amsterdam,"['Italian', 'Dutch', 'European']",2330,4,$$ - $$$,7,"[['Surprising find of British pub grub', 'From Africa to US plane connection'], ['10/06/2017', '03/11/2017']]",/Restaurant_Review-g188590-d10425972-Reviews-Silverscreen-Amsterdam_North_Holland_Province.html,d10425972,52.36994,4.90788
2325,2325,Cafe Lennep,Amsterdam,"['Bar', 'International', 'European', 'Grill', 'Pub']",2331,3.5,$$ - $$$,38,"[['Good food and nice atmosphere', 'Lovely setting, great food'], ['10/13/2017', '12/30/2017']]",/Restaurant_Review-g188590-d6767663-Reviews-Cafe_Lennep-Amsterdam_North_Holland_Province.html,d6767663,52.36282,4.86199
2326,2326,Sukhothai Streetfood Express,Amsterdam,,2332,4.5,,3,"[['Excellent food'], ['08/29/2017']]",/Restaurant_Review-g188590-d11949034-Reviews-Sukhothai_Streetfood_Express-Amsterdam_North_Holland_Province.html,d11949034,52.30702,4.97951
2327,2327,Eastside,Amsterdam,"['American', 'Vegetarian Friendly', 'Vegan Options']",2333,4,$$ - $$$,33,"[['Amazing food', 'Brunch'], ['08/17/2017', '01/17/2017']]",/Restaurant_Review-g188590-d9735116-Reviews-Eastside-Amsterdam_North_Holland_Province.html,d9735116,52.36994,4.90788
2328,2328,Borchland,Amsterdam,['International'],2334,4,$$ - $$$,6,"[['Great !!', 'Relaxing place in Amsterdam'], ['07/26/2017', '09/27/2016']]",/Restaurant_Review-g188590-d10109212-Reviews-Borchland-Amsterdam_North_Holland_Province.html,d10109212,52.36994,4.90788
2329,2329,Leziz,Amsterdam,"['Mediterranean', 'Turkish']",2335,4,$$ - $$$,9,"[['Wauw', 'Ok food, average staff'], ['07/03/2017', '09/23/2016']]",/Restaurant_Review-g188590-d8362764-Reviews-Leziz-Amsterdam_North_Holland_Province.html,d8362764,52.35147,4.7974
2330,2330,Restaurant Old School Amsterdam,Amsterdam,"['Dutch', 'European']",2336,4,$$ - $$$,23,"[['Offsite', 'I went there for the music'], ['03/09/2016', '02/28/2016']]",/Restaurant_Review-g188590-d4932666-Reviews-Restaurant_Old_School_Amsterdam-Amsterdam_North_Holland_Province.html,d4932666,52.3376,4.8968
2331,2331,Broodje van het land,Amsterdam,"['Dutch', 'International', 'European']",2337,5,$$ - $$$,11,"[['Yummy', 'Delicious flandkuhen'], ['05/24/2017', '02/10/2017']]",/Restaurant_Review-g188590-d10696880-Reviews-Broodje_van_het_land-Amsterdam_North_Holland_Province.html,d10696880,52.34237,4.89267
2332,2332,Manger Maintenant,Amsterdam,['French'],2338,4.5,,3,"[['Little Hidden Gem', 'Organic food for takeaway: great taste, ec...'], ['02/06/2015', '09/17/2014']]",/Restaurant_Review-g188590-d4835417-Reviews-Manger_Maintenant-Amsterdam_North_Holland_Province.html,d4835417,52.37658,4.88221
2333,2333,La Piccola Storia,Amsterdam,,2339,4.5,,3,"[['Pizza to bring home and other great Italia...', 'Pizza from wood burn oven!'], ['08/22/2016', '10/06/2015']]",/Restaurant_Review-g188590-d8651213-Reviews-La_Piccola_Storia-Amsterdam_North_Holland_Province.html,d8651213,52.38364,4.87402
2334,2334,The Burning Pans,Amsterdam,"['Mediterranean', 'British', 'Greek']",2340,4.5,$,7,"[['Nice little bar.', 'Loved it'], ['10/22/2016', '10/18/2016']]",/Restaurant_Review-g188590-d10285837-Reviews-The_Burning_Pans-Amsterdam_North_Holland_Province.html,d10285837,52.37518,4.89713
2335,2335,Vishandel Smit,Amsterdam,,2341,4.5,,2,"[[], []]",/Restaurant_Review-g188590-d8118182-Reviews-Vishandel_Smit-Amsterdam_North_Holland_Province.html,d8118182,52.36302,4.87501
2336,2336,Le Pain Quotidien,Amsterdam,"['European', 'French', 'Healthy', 'Vegetarian Friendly']",2342,3.5,$$ - $$$,59,"[['Decent', 'Great kid friendly place'], ['11/16/2017', '10/02/2017']]",/Restaurant_Review-g188590-d8001824-Reviews-Le_Pain_Quotidien-Amsterdam_North_Holland_Province.html,d8001824,52.37721,4.89415
2337,2337,Marhaba,Amsterdam,"['Dutch', 'Moroccan', 'Mediterranean', 'European', 'Egyptian', 'Arabic', 'Halal']",2343,4.5,$$ - $$$,4,"[['Decent servings'], ['07/19/2016']]",/Restaurant_Review-g188590-d10331674-Reviews-Marhaba-Amsterdam_North_Holland_Province.html,d10331674,52.35664,4.91196
2338,2338,Ice Bakery Paleis,Amsterdam,"['American', 'Dutch', 'European', 'Italian']",2344,4,$$ - $$$,8,"[['Delicious Churros !', 'Bad service + misleading product descripti...'], ['11/15/2017', '11/25/2017']]",/Restaurant_Review-g188590-d12400697-Reviews-Ice_Bakery_Paleis-Amsterdam_North_Holland_Province.html,d12400697,52.37168,4.89635
2339,2339,Spingaren,Amsterdam,"['International', 'Vegetarian Friendly', 'Gluten Free Options']",2345,3.5,$$ - $$$,27,"[['Christmas menu boxing day', 'Nice place but food is a bit disappointing'], ['12/26/2017', '12/02/2017']]",/Restaurant_Review-g188590-d12905396-Reviews-Spingaren-Amsterdam_North_Holland_Province.html,d12905396,52.37673,4.88943
2340,2340,Cafe The Flying Dutchman,Amsterdam,"['Bar', 'Dutch', 'European', 'Pub']",2346,4,$,53,"[['Great place for a quick drink', 'Used to be good.....'], ['09/30/2017', '10/17/2017']]",/Restaurant_Review-g188590-d3959678-Reviews-Cafe_The_Flying_Dutchman-Amsterdam_North_Holland_Province.html,d3959678,52.37783,4.89631
2341,2341,Royal Pancakes,Amsterdam,,2347,4.5,,2,"[['Good Pancakes'], ['07/04/2017']]",/Restaurant_Review-g188590-d12617747-Reviews-Royal_Pancakes-Amsterdam_North_Holland_Province.html,d12617747,48.87983,2.32701
2342,2342,Warung Barokah,Amsterdam,"['Asian', 'Indonesian']",2348,4,,6,"[['Outstanding Indonesian food....Bakso!!!', 'Good take away'], ['07/10/2017', '10/27/2016']]",/Restaurant_Review-g188590-d9150146-Reviews-Warung_Barokah-Amsterdam_North_Holland_Province.html,d9150146,52.34816,4.8478
2343,2343,Brasserie Les Saveurs,Amsterdam,,2349,5,,4,"[['Les Saveurs was lit fam.', 'Hospitality students serving you!'], ['12/08/2016', '02/12/2016']]",/Restaurant_Review-g188590-d8372890-Reviews-Brasserie_Les_Saveurs-Amsterdam_North_Holland_Province.html,d8372890,52.36932,4.84377
2344,2344,Abant Eten & Drinken,Amsterdam,,2350,4.5,,2,"[['Excellent food'], ['11/15/2014']]",/Restaurant_Review-g188590-d7231781-Reviews-Abant_Eten_Drinken-Amsterdam_North_Holland_Province.html,d7231781,52.35558,4.87364
2345,2345,Wagamama,Amsterdam,"['Japanese', 'Asian', 'Vegetarian Friendly', 'Vegan Options']",2351,3.5,$$ - $$$,57,"[['Nice Asian food', 'What has happened to Wagamama???!!!'], ['12/29/2017', '09/21/2017']]",/Restaurant_Review-g188590-d10504870-Reviews-Wagamama-Amsterdam_North_Holland_Province.html,d10504870,52.38024,4.89938
2346,2346,Pomorosso Pizzeria,Amsterdam,"['Italian', 'Pizza', 'European']",2352,4,$,30,"[['Simple corner pizza shop', 'Delivered from Uber Eats'], ['11/29/2017', '09/23/2017']]",/Restaurant_Review-g188590-d3299311-Reviews-Pomorosso_Pizzeria-Amsterdam_North_Holland_Province.html,d3299311,52.35432,4.85559
2347,2347,Yumler,Amsterdam,"['International', 'Asian', 'Middle Eastern', 'Healthy']",2353,4.5,$,6,"[['Good and healthy food f', 'Delicious takeaway food'], ['06/20/2017', '06/05/2017']]",/Restaurant_Review-g188590-d12205087-Reviews-Yumler-Amsterdam_North_Holland_Province.html,d12205087,52.36983,4.83609
2348,2348,How Do You Roll,Amsterdam,"['Japanese', 'Sushi']",2354,4.5,$$ - $$$,3,"[['Good price, very good custom sushi!', 'Craving for SUSHI Stop and Enjoy'], ['07/11/2017', '11/02/2016']]",/Restaurant_Review-g188590-d10784458-Reviews-How_Do_You_Roll-Amsterdam_North_Holland_Province.html,d10784458,52.36071,4.8913
2349,2349,Padron Streetfood,Amsterdam,"['Dutch', 'European', 'Healthy', 'Street Food', 'Vegetarian Friendly']",2355,4.5,$,3,"[['Very healthy', 'Perfect!'], ['05/22/2017', '02/24/2017']]",/Restaurant_Review-g188590-d10911149-Reviews-Padron_Streetfood-Amsterdam_North_Holland_Province.html,d10911149,52.36767,4.8677
2350,2350,De Stijl,Amsterdam,"['European', 'Vegetarian Friendly']",2356,3.5,$$ - $$$,22,"[['Always a pleasure', 'Good Options and Fast Service'], ['11/21/2017', '11/05/2017']]",/Restaurant_Review-g188590-d1075044-Reviews-De_Stijl-Amsterdam_North_Holland_Province.html,d1075044,52.34167,4.82503
2351,2351,Neighbours,Amsterdam,,2357,4,,29,"[['Wonderful evening and fabulous dinner', 'Perfect food in cozy atmosphere.'], ['08/02/2016', '03/04/2016']]",/Restaurant_Review-g188590-d8515251-Reviews-Neighbours-Amsterdam_North_Holland_Province.html,d8515251,52.35777,4.88891
2352,2352,Mason Street,Amsterdam,"['Bar', 'Pub', 'Dutch', 'International', 'European']",2358,3.5,$$ - $$$,30,"[['Drink-drink-drink', 'Nice place - a little atmosphere in corpor...'], ['04/08/2017', '03/06/2017']]",/Restaurant_Review-g188590-d8710314-Reviews-Mason_Street-Amsterdam_North_Holland_Province.html,d8710314,40.47445,-80.92067
2353,2353,Fresh Food Lovers,Amsterdam,"['International', 'Mediterranean', 'European', 'Delicatessen', 'Healthy', 'Portuguese']",2359,4.5,,3,"[['Really nice pastrami sandiwch!!!', 'Wonderful!!'], ['01/10/2018', '01/02/2018']]",/Restaurant_Review-g188590-d12811638-Reviews-Fresh_Food_Lovers-Amsterdam_North_Holland_Province.html,d12811638,52.36923,4.89155
2354,2354,Argentina Restaurant Los Santos,Amsterdam,"['Steakhouse', 'Barbecue', 'Argentinean']",2360,3.5,$$ - $$$,178,"[['Average meat, average speed, high prices', 'nice but could be better'], ['11/05/2017', '10/25/2017']]",/Restaurant_Review-g188590-d3365845-Reviews-Argentina_Restaurant_Los_Santos-Amsterdam_North_Holland_Province.html,d3365845,52.36946,4.88883
2355,2355,Burger King Amstel Station,Amsterdam,,2361,3.5,,13,"[['Burger Time!', 'Convenient by the train station'], ['08/13/2017', '05/06/2017']]",/Restaurant_Review-g188590-d10823669-Reviews-Burger_King_Amstel_Station-Amsterdam_North_Holland_Province.html,d10823669,52.34691,4.91853
2356,2356,Cafe de zon,Amsterdam,"['Dutch', 'European']",2362,4.5,$,2,"[['Lovely bar'], ['12/31/2017']]",/Restaurant_Review-g188590-d12895830-Reviews-Cafe_de_zon-Amsterdam_North_Holland_Province.html,d12895830,52.38028,4.88555
2357,2357,Sinners in Heaven,Amsterdam,,2363,4,,2,"[['Food fab, long wait'], ['08/14/2013']]",/Restaurant_Review-g188590-d697019-Reviews-Sinners_in_Heaven-Amsterdam_North_Holland_Province.html,d697019,52.36658,4.89933
2358,2358,"Stroopwafels, Taart & Koek",Amsterdam,"['Dutch', 'European']",2364,4.5,$,3,"[['Warm, gooey, and delicious', 'Gotta have a Stroopwafel!'], ['01/01/2018', '07/10/2017']]",/Restaurant_Review-g188590-d10205429-Reviews-Stroopwafels_Taart_Koek-Amsterdam_North_Holland_Province.html,d10205429,52.35927,4.88186
2359,2359,Het IJspaleis,Amsterdam,,2365,4.5,,3,"[['Artisanal ice cream in the Pijp Area'], ['04/06/2016']]",/Restaurant_Review-g188590-d10155015-Reviews-Het_IJspaleis-Amsterdam_North_Holland_Province.html,d10155015,52.35615,4.89764
2360,2360,Mr. Mix,Amsterdam,"['European', 'Italian', 'Barbecue', 'Argentinean', 'South American']",2366,4.5,$$ - $$$,14,"[['Excellent food', 'Excellent restaurant.'], ['06/02/2016', '05/21/2016']]",/Restaurant_Review-g188590-d3256836-Reviews-Mr_Mix-Amsterdam_North_Holland_Province.html,d3256836,52.38126,4.79147
2361,2361,Rosa & Rita,Amsterdam,"['European', 'Italian', 'Pizza']",2367,3.5,$$ - $$$,51,"[['Industrial setting and nice atmosphere, si...', 'Not very good'], ['11/07/2017', '07/09/2017']]",/Restaurant_Review-g188590-d2337018-Reviews-Rosa_Rita-Amsterdam_North_Holland_Province.html,d2337018,52.37189,4.93151
2362,2362,Tapas Restaurant L 'amour,Amsterdam,"['Bar', 'Mediterranean', 'European', 'Spanish', 'Pub']",2368,3,$$ - $$$,171,"[['In general food not good in Amsterdam', 'Good Food, but Forgot Orders'], ['11/16/2017', '07/22/2017']]",/Restaurant_Review-g188590-d2255809-Reviews-Tapas_Restaurant_L_amour-Amsterdam_North_Holland_Province.html,d2255809,52.37329,4.88692
2363,2363,Tatlises,Amsterdam,"['Turkish', 'Healthy', 'Vegetarian Friendly', 'Vegan Options']",2369,4.5,$,2,"[['Great vegetarian snack!'], ['05/17/2016']]",/Restaurant_Review-g188590-d8788055-Reviews-Tatlises-Amsterdam_North_Holland_Province.html,d8788055,38.35056,-94.58502
2364,2364,Eetcafe Kim,Amsterdam,['Indian'],2370,5,,4,"[['A hidden gem for cheap, excellent Indian f...', 'Indian Gem that doesnt look like an indian...'], ['01/17/2017', '05/02/2016']]",/Restaurant_Review-g188590-d4698034-Reviews-Eetcafe_Kim-Amsterdam_North_Holland_Province.html,d4698034,52.34474,4.86452
2365,2365,25 Severn,Amsterdam,,2371,4.5,,4,"[['Chef Harm is a gem', 'Good place'], ['11/13/2017', '04/29/2016']]",/Restaurant_Review-g188590-d10219892-Reviews-25_Severn-Amsterdam_North_Holland_Province.html,d10219892,52.36805,4.91622
2366,2366,Nacarat,Amsterdam,"['Mediterranean', 'Middle Eastern', 'Lebanese', 'Vegetarian Friendly']",2372,3.5,$$ - $$$,59,"[['Food ok, service disappointing', 'Its okay, not that special'], ['12/27/2017', '12/10/2017']]",/Restaurant_Review-g188590-d12875092-Reviews-Nacarat-Amsterdam_North_Holland_Province.html,d12875092,52.37139,4.8931
2367,2367,Van Wou,Amsterdam,,2373,4.5,,4,"[['A real market cafe.', 'Cuttle little bruin cafe'], ['01/09/2018', '07/20/2016']]",/Restaurant_Review-g188590-d8809897-Reviews-Van_Wou-Amsterdam_North_Holland_Province.html,d8809897,52.34953,4.90402
2368,2368,Stock,Amsterdam,"['Cafe', 'European']",2374,3.5,$,59,"[['Nice for a quick bite to eat', 'Long wait poor service, hope they can impr...'], ['12/16/2017', '10/03/2017']]",/Restaurant_Review-g188590-d7618686-Reviews-Stock-Amsterdam_North_Holland_Province.html,d7618686,52.37528,4.89575
2369,2369,Fitch & Shui,Amsterdam,"['Dutch', 'Bar', 'European', 'Pub']",2375,4,$$ - $$$,32,"[['Nice', 'Good for after work snack'], ['02/18/2017', '11/16/2016']]",/Restaurant_Review-g188590-d3738205-Reviews-Fitch_Shui-Amsterdam_North_Holland_Province.html,d3738205,52.34062,4.87439
2370,2370,The Kiwi,Amsterdam,"['Dutch', 'Bar', 'European', 'Pub']",2376,4.5,$$ - $$$,2,"[['Friendly bar in Amsterdam', 'Fun Local Bar'], ['11/18/2017', '10/11/2017']]",/Restaurant_Review-g188590-d12970792-Reviews-The_Kiwi-Amsterdam_North_Holland_Province.html,d12970792,52.37192,4.87405
2371,2371,Stadsschouwburg Cafe Brasserie,Amsterdam,"['International', 'Vegetarian Friendly']",2377,3.5,$$ - $$$,18,"[['Delicious', 'Good food, middling service'], ['10/25/2017', '10/15/2017']]",/Restaurant_Review-g188590-d12458925-Reviews-Stadsschouwburg_Cafe_Brasserie-Amsterdam_North_Holland_Province.html,d12458925,52.36388,4.88255
2372,2372,iboenda Indonesian restaurant and takeaway,Amsterdam,"['Asian', 'Indonesian', 'Halal', 'Vegetarian Friendly']",2378,4,,24,"[['Good for a quick bite', 'too sweet'], ['05/17/2017', '10/01/2017']]",/Restaurant_Review-g188590-d5889271-Reviews-Iboenda_Indonesian_restaurant_and_takeaway-Amsterdam_North_Holland_Province.html,d5889271,52.37066,4.86935
2373,2373,Bakery van der Heijden,Amsterdam,,2379,4.5,,2,"[[], []]",/Restaurant_Review-g188590-d12814346-Reviews-Bakery_van_der_Heijden-Amsterdam_North_Holland_Province.html,d12814346,52.35914,4.83151
2374,2374,Waroeng Adji,Amsterdam,,2380,4.5,,2,"[[], []]",/Restaurant_Review-g188590-d12905343-Reviews-Waroeng_Adji-Amsterdam_North_Holland_Province.html,d12905343,52.35434,4.82729
2375,2375,Nescio Bar and Cafe,Amsterdam,,2381,4,,11,"[['Convenient for hostel guests', 'Great balls ‚öΩÔ∏è'], ['10/02/2017', '11/17/2017']]",/Restaurant_Review-g188590-d10064351-Reviews-Nescio_Bar_and_Cafe-Amsterdam_North_Holland_Province.html,d10064351,52.3612,4.91873
2376,2376,Kannibalen En Paradijsvogels,Amsterdam,,2382,4.5,,4,"[['Cannibalize your paradize bird!', 'Long wait for take away'], ['09/07/2017', '08/11/2017']]",/Restaurant_Review-g188590-d12630857-Reviews-Kannibalen_En_Paradijsvogels-Amsterdam_North_Holland_Province.html,d12630857,52.38969,4.91024
2377,2377,New York Pizza,Amsterdam,,2383,4,,9,"[['Good pizza', 'Good pizza !'], ['07/01/2017', '01/03/2018']]",/Restaurant_Review-g188590-d11912900-Reviews-New_York_Pizza-Amsterdam_North_Holland_Province.html,d11912900,52.36684,4.87256
2378,2378,Ed`s Indonesische Delicatessen,Amsterdam,,2384,4.5,,4,"[[""Ed's at least once a week"", 'Great TakeAway Place'], ['12/14/2016', '10/23/2016']]",/Restaurant_Review-g188590-d10678385-Reviews-Ed_s_Indonesische_Delicatessen-Amsterdam_North_Holland_Province.html,d10678385,52.35826,4.87758
2379,2379,Toon Grill,Amsterdam,['Steakhouse'],2385,4.5,,9,"[['Really nice', 'Great little place'], ['07/27/2015', '04/25/2015']]",/Restaurant_Review-g188590-d3156885-Reviews-Toon_Grill-Amsterdam_North_Holland_Province.html,d3156885,52.34509,4.89085
2380,2380,jennifers,Amsterdam,"['Cafe', 'European']",2386,4,$,41,"[['Quick lunch', 'Breakfast galore'], ['11/27/2017', '05/17/2017']]",/Restaurant_Review-g188590-d3329650-Reviews-Jennifers-Amsterdam_North_Holland_Province.html,d3329650,52.37329,4.88855
2381,2381,The Gallery,Amsterdam,,2387,4,,16,"[['Great Buffet Breakfasts', 'Nice :)'], ['09/17/2016', '07/15/2016']]",/Restaurant_Review-g188590-d1420123-Reviews-The_Gallery-Amsterdam_North_Holland_Province.html,d1420123,52.39292,4.86883
2382,2382,Gusto Di Casto,Amsterdam,"['Italian', 'Mediterranean', 'European', 'Pizza', 'Vegetarian Friendly']",2388,3.5,$$ - $$$,39,"[['Disappointed in new and expensive menu', 'Good food'], ['11/26/2017', '08/16/2017']]",/Restaurant_Review-g188590-d6525661-Reviews-Gusto_Di_Casto-Amsterdam_North_Holland_Province.html,d6525661,52.3308,4.87913
2383,2383,Zwart,Amsterdam,"['American', 'Dutch', 'European', 'South American']",2389,4.5,$,3,"[['Smashing food and great coffee!'], ['11/17/2017']]",/Restaurant_Review-g188590-d12296001-Reviews-Zwart-Amsterdam_North_Holland_Province.html,d12296001,52.37257,4.89402
2384,2384,Lite Dark Zeedijk,Amsterdam,"['Healthy', 'Vegetarian Friendly']",2390,4.5,$$ - $$$,9,"[['Nice but expensive', 'Gluten free'], ['08/10/2016', '06/28/2016']]",/Restaurant_Review-g188590-d7271914-Reviews-Lite_Dark_Zeedijk-Amsterdam_North_Holland_Province.html,d7271914,52.37492,4.90096
2385,2385,Lunch Cafe Dialoog,Amsterdam,"['Cafe', 'European']",2391,3.5,$,128,"[['Coffee.', 'Nice Coffee'], ['09/27/2017', '09/10/2017']]",/Restaurant_Review-g188590-d8457020-Reviews-Lunch_Cafe_Dialoog-Amsterdam_North_Holland_Province.html,d8457020,52.3754,4.88402
2386,2386,Prins Van Oranje,Amsterdam,['European'],2392,4.5,,2,"[['Very good'], ['09/15/2015']]",/Restaurant_Review-g188590-d4086907-Reviews-Prins_Van_Oranje-Amsterdam_North_Holland_Province.html,d4086907,52.36654,4.89446
2387,2387,Lodewijck's Eetcafe,Amsterdam,['International'],2393,4.5,$$ - $$$,4,"[['Very welcoming host and good value', 'A very good place to eat in Amsterdam'], ['11/08/2016', '09/25/2016']]",/Restaurant_Review-g188590-d10539550-Reviews-Lodewijck_s_Eetcafe-Amsterdam_North_Holland_Province.html,d10539550,52.38503,4.87502
2388,2388,Suvi AsianFood Lounge,Amsterdam,"['Sushi', 'Asian', 'Vietnamese', 'Japanese', 'Soups', 'Vegetarian Friendly']",2394,4,$$ - $$$,28,"[['Good sushi üç• for a good price.', 'Amaizing tasty'], ['07/08/2017', '11/27/2016']]",/Restaurant_Review-g188590-d5966364-Reviews-Suvi_AsianFood_Lounge-Amsterdam_North_Holland_Province.html,d5966364,52.35684,4.89971
2389,2389,Voldaan Amsterdam,Amsterdam,"['Dutch', 'European', 'Fusion', 'Healthy', 'Soups', 'Vegetarian Friendly', 'Vegan Options']",2395,4,$,20,"[['Horrible kitchen', 'Had the lamb sandwich for 6.50 euros. Good...'], ['07/02/2017', '05/28/2017']]",/Restaurant_Review-g188590-d6550025-Reviews-Voldaan_Amsterdam-Amsterdam_North_Holland_Province.html,d6550025,52.36223,4.86429
2390,2390,Grand Cafe-Restaurant,Amsterdam,['European'],2396,4.5,$$ - $$$,16,"[['What a find!', 'Beautiful vintage atmosphere with live par...'], ['01/22/2017', '04/23/2016']]",/Restaurant_Review-g188590-d1603664-Reviews-Grand_Cafe_Restaurant-Amsterdam_North_Holland_Province.html,d1603664,52.31327,4.94853
2391,2391,Cafe Struik,Amsterdam,,2397,4,,8,"[['Korean night', 'Great bar'], ['06/29/2017', '10/23/2017']]",/Restaurant_Review-g188590-d7991965-Reviews-Cafe_Struik-Amsterdam_North_Holland_Province.html,d7991965,52.37281,4.87834
2392,2392,Tripel,Amsterdam,,2398,3.5,,13,"[['Have a tasting of three beers!', 'Two for One ‚òùÔ∏è !'], ['11/21/2017', '11/09/2017']]",/Restaurant_Review-g188590-d9710669-Reviews-Tripel-Amsterdam_North_Holland_Province.html,d9710669,52.29509,4.95782
2393,2393,Madame Jeanette,Amsterdam,,2399,4,,16,"[['Great Food & Atmosphere', 'Fantastic food, service and atmosphere'], ['06/04/2017', '05/20/2017']]",/Restaurant_Review-g188590-d8018787-Reviews-Madame_Jeanette-Amsterdam_North_Holland_Province.html,d8018787,52.35318,4.79523
2394,2394,The Commons Amsterdam City,Amsterdam,['International'],2400,4.5,$$ - $$$,2,"[['Sharing is Caring'], ['12/21/2017']]",/Restaurant_Review-g188590-d13205861-Reviews-The_Commons_Amsterdam_City-Amsterdam_North_Holland_Province.html,d13205861,52.35401,4.91243
2395,2395,Friterie Par Hasard (Oud-West),Amsterdam,"['French', 'Belgian', 'Dutch', 'European']",2401,4,$,9,"[[""The very Dutch snack called 'Frika(n)del..."", ""Everything handmade, and it's working1""], ['04/08/2017', '12/19/2017']]",/Restaurant_Review-g188590-d12223900-Reviews-Friterie_Par_Hasard_Oud_West-Amsterdam_North_Holland_Province.html,d12223900,52.353,4.89227
2396,2396,Cafe Frontline,Amsterdam,['International'],2402,4.5,,6,"[['Friendly Bar', 'Fabulous'], ['03/06/2016', '02/12/2016']]",/Restaurant_Review-g188590-d3148847-Reviews-Cafe_Frontline-Amsterdam_North_Holland_Province.html,d3148847,52.37404,4.90153
2397,2397,Bakery Bastards,Amsterdam,,2403,4.5,,3,"[['Great little bakery.', 'Great for Coffee, Cake and Pasteries'], ['02/23/2017', '10/05/2016']]",/Restaurant_Review-g188590-d11290461-Reviews-Bakery_Bastards-Amsterdam_North_Holland_Province.html,d11290461,52.36658,4.88776
2398,2398,Bakker Bart,Amsterdam,,2404,4,,9,"[['Great bakery for a quick bite, fresh and d...', 'Certainly hit the spot'], ['01/16/2017', '05/07/2017']]",/Restaurant_Review-g188590-d9603802-Reviews-Bakker_Bart-Amsterdam_North_Holland_Province.html,d9603802,52.37404,4.93685
2399,2399,Brasserie Halte 3,Amsterdam,"['Bar', 'European', 'French', 'Dutch', 'Pub', 'Vegetarian Friendly']",2405,3.5,$$ - $$$,50,"[['Was my local whilst in Amsterdam!', 'Pleasant Lunch in a Tram Shed'], ['08/18/2016', '07/31/2016']]",/Restaurant_Review-g188590-d7392479-Reviews-Brasserie_Halte_3-Amsterdam_North_Holland_Province.html,d7392479,52.36767,4.8677
2400,2400,Rolling Rock Kitchen,Amsterdam,"['Bar', 'European', 'French', 'Dutch', 'Pub', 'Vegetarian Friendly']",2406,4,$$ - $$$,5,"[['Closed tonight, but looks good!'], ['06/13/2017']]",/Restaurant_Review-g188590-d10811190-Reviews-Rolling_Rock_Kitchen-Amsterdam_North_Holland_Province.html,d10811190,52.3953,4.89861
2401,2401,Bakker Baard Diner,Amsterdam,['French'],2407,4.5,$$ - $$$,4,"[['A unique experience', 'absolutely delicious and unique entertainm...'], ['09/21/2014', '09/20/2013']]",/Restaurant_Review-g188590-d4909504-Reviews-Bakker_Baard_Diner-Amsterdam_North_Holland_Province.html,d4909504,52.37502,4.87183
2402,2402,Crazy Kreeft,Amsterdam,"['Bar', 'Grill', 'Pub']",2408,4.5,$$ - $$$,8,"[['I love this place :)', 'No frills, but good food and a fun experie...'], ['05/02/2015', '04/12/2015']]",/Restaurant_Review-g188590-d7812389-Reviews-Crazy_Kreeft-Amsterdam_North_Holland_Province.html,d7812389,52.36657,4.89582
2403,2403,De Hapjeshoek,Amsterdam,,2409,4,,7,"[['Tasty food down under in the metro', 'A simple, yet classy lunchroom with excell...'], ['07/13/2017', '05/17/2017']]",/Restaurant_Review-g188590-d1104331-Reviews-De_Hapjeshoek-Amsterdam_North_Holland_Province.html,d1104331,52.36729,4.90194
2404,2404,Brasserie Pit,Amsterdam,"['French', 'Dutch', 'European']",2410,4.5,,6,"[['Hipe, funk and fun place', 'Fantastic bread'], ['04/19/2015', '04/11/2015']]",/Restaurant_Review-g188590-d7236195-Reviews-Brasserie_Pit-Amsterdam_North_Holland_Province.html,d7236195,52.36317,4.89212
2405,2405,Snackbar Ten Have,Amsterdam,"['Fast Food', 'Mediterranean', 'Grill', 'Dutch']",2411,4.5,$$ - $$$,2,"[['Open late!'], ['09/11/2016']]",/Restaurant_Review-g188590-d6708237-Reviews-Snackbar_Ten_Have-Amsterdam_North_Holland_Province.html,d6708237,52.3761,4.89194
2406,2406,Indian Restaurant Amsterdam,Amsterdam,['Indian'],2412,4,$$ - $$$,10,"[['Homely delicacies.', 'Great food lovely service'], ['06/05/2017', '03/06/2017']]",/Restaurant_Review-g188590-d7189015-Reviews-Indian_Restaurant_Amsterdam-Amsterdam_North_Holland_Province.html,d7189015,52.36452,4.85646
2407,2407,SoyTasty,Amsterdam,"['Japanese', 'Sushi']",2413,4,$$ - $$$,9,"[['Best Sushi take away of the Oud West Neigh...', 'Great quality on takeaway sushi'], ['10/26/2016', '03/06/2016']]",/Restaurant_Review-g188590-d7292218-Reviews-SoyTasty-Amsterdam_North_Holland_Province.html,d7292218,52.36632,4.87274
2408,2408,Friska,Amsterdam,['International'],2414,4.5,,3,"[['Great place!'], ['06/24/2017']]",/Restaurant_Review-g188590-d7904937-Reviews-Friska-Amsterdam_North_Holland_Province.html,d7904937,52.36703,4.86903
2409,2409,Bar Brouw,Amsterdam,"['Bar', 'Barbecue', 'Pub']",2415,4,$$ - $$$,35,"[['Now closed', 'Meat, beer, and conversation about that.'], ['06/07/2017', '12/16/2015']]",/Restaurant_Review-g188590-d5499107-Reviews-Bar_Brouw-Amsterdam_North_Holland_Province.html,d5499107,52.35825,4.87872
2410,2410,STROOP,Amsterdam,"['Dutch', 'International', 'European']",2416,4.5,,2,"[['Great food', 'stroop offers more!'], ['12/18/2017', '09/25/2017']]",/Restaurant_Review-g188590-d12711842-Reviews-STROOP-Amsterdam_North_Holland_Province.html,d12711842,52.41836,4.873
2411,2411,Cafe Binnenvisser,Amsterdam,,2417,4.5,,2,"[['Nice casual atmosphere, simple menu'], ['09/06/2017']]",/Restaurant_Review-g188590-d12878239-Reviews-Cafe_Binnenvisser-Amsterdam_North_Holland_Province.html,d12878239,52.37148,4.87059
2412,2412,B & B Luxe Lunch & Buffet Styling,Amsterdam,,2418,4.5,,6,"[['5/5', ""It's a Chain? Five locations!""], ['08/04/2017', '11/27/2015']]",/Restaurant_Review-g188590-d3914237-Reviews-B_B_Luxe_Lunch_Buffet_Styling-Amsterdam_North_Holland_Province.html,d3914237,52.33209,4.88355
2413,2413,Moksi,Amsterdam,['Indian'],2419,4.5,$,10,"[['Friendly! Simple. ""Lekker""', 'Great value, perfect hospitality, super ta...'], ['09/15/2016', '11/17/2015']]",/Restaurant_Review-g188590-d1179651-Reviews-Moksi-Amsterdam_North_Holland_Province.html,d1179651,52.3561,4.89053
2414,2414,Dim Sum Now,Amsterdam,"['Chinese', 'Asian', 'Vegetarian Friendly', 'Vegan Options']",2420,3.5,$$ - $$$,85,"[['Quick and good', 'Nice & easy'], ['01/02/2018', '11/03/2017']]",/Restaurant_Review-g188590-d10210765-Reviews-Dim_Sum_Now-Amsterdam_North_Holland_Province.html,d10210765,52.36239,4.87411
2415,2415,Bar22,Amsterdam,['Contemporary'],2421,4.5,,2,"[['Not just a bar - the food was fantastic', 'GreatSpot'], ['12/22/2015', '01/22/2015']]",/Restaurant_Review-g188590-d3820357-Reviews-Bar22-Amsterdam_North_Holland_Province.html,d3820357,52.31045,4.95068
2416,2416,Ferrara,Amsterdam,['Italian'],2422,4.5,,5,"[['Surprisingly good food but few downfalls', 'Friendly, hospitible, fabulous service and...'], ['07/11/2013', '11/29/2012']]",/Restaurant_Review-g188590-d3600508-Reviews-Ferrara-Amsterdam_North_Holland_Province.html,d3600508,44.62247,11.82685
2417,2417,Pizzeria Michelangelo,Amsterdam,['Italian'],2423,4,$$ - $$$,11,"[['Quick dinner', 'Awesome pizza'], ['02/16/2017', '05/06/2016']]",/Restaurant_Review-g188590-d8855199-Reviews-Pizzeria_Michelangelo-Amsterdam_North_Holland_Province.html,d8855199,52.38056,4.85426
2418,2418,Halal Falafel Fast Food,Amsterdam,"['Fast Food', 'Middle Eastern', 'Turkish', 'Halal']",2424,4,$,23,"[['Absolutely delicious!', 'Loved the fries and falafels!'], ['05/29/2017', '02/25/2017']]",/Restaurant_Review-g188590-d7222907-Reviews-Halal_Falafel_Fast_Food-Amsterdam_North_Holland_Province.html,d7222907,52.37197,4.89545
2419,2419,SNCKBR West,Amsterdam,"['American', 'Dutch', 'Healthy', 'Afghani', 'European', 'Middle Eastern', 'Vegetarian Friendly']",2425,4,$$ - $$$,25,"[['Original concept', 'Yummy freakshakes and Hummus Superbowl'], ['09/30/2017', '09/22/2017']]",/Restaurant_Review-g188590-d11955133-Reviews-SNCKBR_West-Amsterdam_North_Holland_Province.html,d11955133,52.35863,4.89891
2420,2420,Urban Grill,Amsterdam,"['Grill', 'Bar', 'Mediterranean', 'European', 'Pub', 'South American']",2426,5,$,18,"[['Best burger ever', 'Best burgers in dam'], ['08/28/2017', '08/15/2017']]",/Restaurant_Review-g188590-d12233628-Reviews-Urban_Grill-Amsterdam_North_Holland_Province.html,d12233628,52.37266,4.89095
2421,2421,Toomler,Amsterdam,,2427,4.5,,2,"[['Amazing comedy and food', 'Solidly Positive Experience'], ['12/04/2017', '02/04/2017']]",/Restaurant_Review-g188590-d10193818-Reviews-Toomler-Amsterdam_North_Holland_Province.html,d10193818,52.35145,4.8734
2422,2422,Poelier Verhoef - Chris Kip,Amsterdam,"['Fast Food', 'Delicatessen', 'Grill', 'Street Food']",2428,4,$,4,"[['Tasty chicken', 'One of my main reason for visiting the Alb...'], ['02/23/2017', '08/30/2017']]",/Restaurant_Review-g188590-d11700893-Reviews-Poelier_Verhoef_Chris_Kip-Amsterdam_North_Holland_Province.html,d11700893,52.35527,4.89191
2423,2423,Sissy-boy,Amsterdam,,2429,4,,9,"[['A great find in the Magna Plaza', 'Small but satisfying'], ['11/06/2017', '01/20/2017']]",/Restaurant_Review-g188590-d12037330-Reviews-Sissy_boy-Amsterdam_North_Holland_Province.html,d12037330,52.34062,4.87439
2424,2424,Westerliefde,Amsterdam,"['Bar', 'Pub']",2430,4,,7,"[['Nice terrace', 'Relaxed family place with good food.'], ['07/16/2017', '11/09/2016']]",/Restaurant_Review-g188590-d1113830-Reviews-Westerliefde-Amsterdam_North_Holland_Province.html,d1113830,52.38591,4.87482
2425,2425,Wok2Go Express,Amsterdam,['Thai'],2431,4.5,,6,"[[""For what it is, it's delicious."", 'Great place'], ['01/09/2017', '03/27/2016']]",/Restaurant_Review-g188590-d8776839-Reviews-Wok2Go_Express-Amsterdam_North_Holland_Province.html,d8776839,52.37321,4.89361
2426,2426,Karakter,Amsterdam,"['Bar', 'Pub', 'Gastropub', 'South American']",2432,4.5,$$ - $$$,10,"[['Great food and best bar tenders', 'Great Thai food and service'], ['12/21/2017', '12/21/2017']]",/Restaurant_Review-g188590-d11722200-Reviews-Karakter-Amsterdam_North_Holland_Province.html,d11722200,52.37056,4.86877
2427,2427,Restaurant Taytu,Amsterdam,,2433,4,,21,"[['Such a nice place and good food!', 'Argumentive terrible experience'], ['08/09/2017', '05/12/2017']]",/Restaurant_Review-g188590-d10338301-Reviews-Restaurant_Taytu-Amsterdam_North_Holland_Province.html,d10338301,40.79494,-73.96972
2428,2428,Lago,Amsterdam,,2434,4.5,,2,"[[], []]",/Restaurant_Review-g188590-d12251351-Reviews-Lago-Amsterdam_North_Holland_Province.html,d12251351,52.36195,4.98197
2429,2429,Restaurant dolce vita,Amsterdam,"['Italian', 'Pizza', 'European', 'Vegetarian Friendly']",2435,3.5,$$ - $$$,158,"[['It is ok', 'Unexpected chill out spot'], ['01/02/2018', '11/20/2017']]",/Restaurant_Review-g188590-d4736732-Reviews-Restaurant_dolce_vita-Amsterdam_North_Holland_Province.html,d4736732,52.37612,4.89928
2430,2430,Pizza Pino,Amsterdam,"['Italian', 'Pizza', 'European', 'Vegetarian Friendly', 'Vegan Options']",2436,3.5,$$ - $$$,95,"[['Service not great, but food was genuine It...', 'One of the best pizzas in Amsterdam!'], ['01/01/2018', '09/30/2017']]",/Restaurant_Review-g188590-d1929822-Reviews-Pizza_Pino-Amsterdam_North_Holland_Province.html,d1929822,52.364,4.88453
2431,2431,De verkeerstoren / Johns bistro,Amsterdam,,2437,4,,9,"[['Curious place with creativity all over.'], ['09/07/2017']]",/Restaurant_Review-g188590-d10237352-Reviews-De_verkeerstoren_Johns_bistro-Amsterdam_North_Holland_Province.html,d10237352,52.39248,4.90571
2432,2432,De Goede Burger,Amsterdam,"['Dutch', 'European']",2438,4,$$ - $$$,16,"[['Summer evening dinner outside', ""It's in the name.""], ['06/25/2017', '02/15/2017']]",/Restaurant_Review-g188590-d10674507-Reviews-De_Goede_Burger-Amsterdam_North_Holland_Province.html,d10674507,52.38045,4.82094
2433,2433,Cafe Kings Cross,Amsterdam,"['Bar', 'Pub']",2439,4,$$ - $$$,19,"[['Cool spot', 'best bar in amsterdam'], ['02/15/2017', '11/12/2017']]",/Restaurant_Review-g188590-d10302231-Reviews-Cafe_Kings_Cross-Amsterdam_North_Holland_Province.html,d10302231,52.4014,4.93235
2434,2434,Piri Piri Amsterdam,Amsterdam,"['European', 'Portuguese']",2440,4.5,,7,"[['Bit of portugal the armenian way', 'Great place for piri piri'], ['09/09/2016', '05/31/2015']]",/Restaurant_Review-g188590-d7734526-Reviews-Piri_Piri_Amsterdam-Amsterdam_North_Holland_Province.html,d7734526,52.38434,4.87197
2435,2435,Broodje van Kootje,Amsterdam,"['Dutch', 'European']",2441,4.5,,3,"[['Memories long forgotten? Never!', 'Great'], ['06/25/2015', '01/20/2015']]",/Restaurant_Review-g188590-d4097746-Reviews-Broodje_van_Kootje-Amsterdam_North_Holland_Province.html,d4097746,52.36769,4.89777
2436,2436,Pinsa's Restaurant,Amsterdam,"['Italian', 'Pizza', 'European', 'Vegetarian Friendly']",2442,4,$$ - $$$,103,"[['Great Quick dinner', 'Excellent pizza, basic location'], ['05/12/2017', '02/18/2017']]",/Restaurant_Review-g188590-d1184099-Reviews-Pinsa_s_Restaurant-Amsterdam_North_Holland_Province.html,d1184099,52.39056,4.87847
2437,2437,Cinema Club Cafe,Amsterdam,"['American', 'European', 'British']",2443,3.5,$,13,"[['Friendly service, reasonably price drinks', 'Nice patio for people watching'], ['10/10/2017', '07/03/2017']]",/Restaurant_Review-g188590-d7251952-Reviews-Cinema_Club_Cafe-Amsterdam_North_Holland_Province.html,d7251952,52.36534,4.89568
2438,2438,Verona,Amsterdam,['Fast Food'],2444,4.5,,6,"[[], []]",/Restaurant_Review-g188590-d4794747-Reviews-Verona-Amsterdam_North_Holland_Province.html,d4794747,-34.95983,-71.21481
2439,2439,Studio Westerpark,Amsterdam,,2445,4.5,,8,"[['Friendly staff. Making your own mini pizza...', 'Live music on Sunday twice a month'], ['11/04/2017', '09/01/2016']]",/Restaurant_Review-g188590-d7938129-Reviews-Studio_Westerpark-Amsterdam_North_Holland_Province.html,d7938129,52.38198,4.86728
2440,2440,Restaurant Hanimeli & Cafe Demliq,Amsterdam,['Vegetarian Friendly'],2446,4,$$ - $$$,21,"[['Good food but a local focus', 'Amazing Food and Great Atmosphere!'], ['08/20/2017', '07/26/2017']]",/Restaurant_Review-g188590-d10453600-Reviews-Restaurant_Hanimeli_Cafe_Demliq-Amsterdam_North_Holland_Province.html,d10453600,52.39688,4.91386
2441,2441,Dickys,Amsterdam,"['Bar', 'Pub', 'Dutch', 'European']",2447,3.5,$$ - $$$,31,"[['Must be their best customer', 'A few nice bevvies'], ['11/15/2017', '05/16/2017']]",/Restaurant_Review-g188590-d8606951-Reviews-Dickys-Amsterdam_North_Holland_Province.html,d8606951,52.3369,4.87323
2442,2442,Chinese boot,Amsterdam,"['Chinese', 'Asian']",2448,3.5,$$ - $$$,17,"[['Have a drink at the bar!', 'Pricey'], ['08/16/2017', '03/14/2017']]",/Restaurant_Review-g188590-d1127884-Reviews-Chinese_boot-Amsterdam_North_Holland_Province.html,d1127884,52.38212,4.91188
2443,2443,Cafe Leuten,Amsterdam,['International'],2449,4,$$ - $$$,12,"[['Canal dinner- best meal of the trip', 'Great for Brunch and breakfast'], ['08/12/2017', '03/19/2017']]",/Restaurant_Review-g188590-d7283420-Reviews-Cafe_Leuten-Amsterdam_North_Holland_Province.html,d7283420,52.35627,4.92976
2444,2444,Thai Khorat,Amsterdam,"['Asian', 'Thai']",2450,3.5,$,41,"[['HUGE portions!', 'Very, very tasty food'], ['10/03/2017', '09/10/2017']]",/Restaurant_Review-g188590-d753221-Reviews-Thai_Khorat-Amsterdam_North_Holland_Province.html,d753221,52.36206,4.87378
2445,2445,JACKS - Juice & Kitchen,Amsterdam,"['Contemporary', 'Healthy', 'Cafe']",2451,4.5,$,22,"[['Nice place to hang out!', 'Super Awesome place!'], ['01/10/2018', '12/27/2017']]",/Restaurant_Review-g188590-d12249577-Reviews-JACKS_Juice_Kitchen-Amsterdam_North_Holland_Province.html,d12249577,52.3561,4.89053
2446,2446,Ibssa,Amsterdam,"['African', 'Ethiopian']",2452,4.5,$,12,"[['Awesome Ethiopian, as usual--great for fam...', 'Good Ethiopian food for a fair price'], ['08/09/2015', '03/02/2015']]",/Restaurant_Review-g188590-d5111619-Reviews-Ibssa-Amsterdam_North_Holland_Province.html,d5111619,52.35672,4.90974
2447,2447,Foyer Popup Restaurant,Amsterdam,"['Dutch', 'European']",2453,4.5,,5,"[['great food, friendly service, and cool atm...', 'Could have been better'], ['03/07/2015', '02/17/2015']]",/Restaurant_Review-g188590-d7219338-Reviews-Foyer_Popup_Restaurant-Amsterdam_North_Holland_Province.html,d7219338,52.36998,4.88441
2448,2448,La Fucina,Amsterdam,"['Italian', 'Mediterranean']",2454,4,$,25,"[['A lil lunch on a Sunday afternoon.', 'Pizza and pasta cravings'], ['06/18/2017', '03/19/2017']]",/Restaurant_Review-g188590-d8772380-Reviews-La_Fucina-Amsterdam_North_Holland_Province.html,d8772380,52.36372,4.93608
2449,2449,Simon Levelt Jodenbree,Amsterdam,,2455,4.5,,3,"[['Courtesy', 'Coffee, Tea, Chocolate and Rembrandt!'], ['12/05/2017', '10/29/2016']]",/Restaurant_Review-g188590-d11756568-Reviews-Simon_Levelt_Jodenbree-Amsterdam_North_Holland_Province.html,d11756568,52.36935,4.90174
2450,2450,Star BBQ,Amsterdam,['Barbecue'],2456,4,$,11,"[['Great local spot', 'A great place for an affordable meal'], ['11/26/2017', '11/01/2017']]",/Restaurant_Review-g188590-d10488124-Reviews-Star_BBQ-Amsterdam_North_Holland_Province.html,d10488124,52.36356,4.93278
2451,2451,Claes Claesz in de Jordaan,Amsterdam,"['Belgian', 'Dutch', 'European']",2457,4,,10,"[['Claes Claesz now called restaurant Dwars.', ""Excellent, though now called 't Smalle""], ['04/26/2013', '04/09/2012']]",/Restaurant_Review-g188590-d753136-Reviews-Claes_Claesz_in_de_Jordaan-Amsterdam_North_Holland_Province.html,d753136,52.37332,4.88035
2452,2452,Pizza Amsterdam,Amsterdam,"['Pizza', 'Italian']",2458,4,$,18,"[['Just Plain Average', 'Fantastic Pizza'], ['11/12/2017', '02/28/2017']]",/Restaurant_Review-g188590-d4355671-Reviews-Pizza_Amsterdam-Amsterdam_North_Holland_Province.html,d4355671,52.35232,4.88577
2453,2453,Cafe Cremer,Amsterdam,['International'],2459,4.5,,3,"[[""Creme de la Creme of Cafe's in Den haag""], ['08/28/2015']]",/Restaurant_Review-g188590-d8154450-Reviews-Cafe_Cremer-Amsterdam_North_Holland_Province.html,d8154450,52.35996,4.85811
2454,2454,Restaurant Boven de Planken,Amsterdam,"['International', 'Mediterranean']",2460,4,$$ - $$$,32,"[['Excellent Location', 'Convenient restaurant when visiting the Th...'], ['08/27/2016', '09/01/2015']]",/Restaurant_Review-g188590-d6777840-Reviews-Restaurant_Boven_de_Planken-Amsterdam_North_Holland_Province.html,d6777840,52.39711,4.8782
2455,2455,Moussaique,Amsterdam,"['French', 'Moroccan', 'Mediterranean', 'Healthy', 'Arabic']",2461,4,$,6,"[['Great', 'Good food, good coffee, good prices'], ['09/11/2017', '09/14/2016']]",/Restaurant_Review-g188590-d10201230-Reviews-Moussaique-Amsterdam_North_Holland_Province.html,d10201230,52.37581,4.89283
2456,2456,Mr Wok Lombok,Amsterdam,"['Chinese', 'Fast Food', 'Asian', 'Vegetarian Friendly', 'Vegan Options']",2462,4.5,$,31,"[['Better than your normal wok place', 'Halal Chinese eatery near Rembrandt Square'], ['04/07/2017', '01/15/2017']]",/Restaurant_Review-g188590-d1590612-Reviews-Mr_Wok_Lombok-Amsterdam_North_Holland_Province.html,d1590612,52.36652,4.89583
2457,2457,Guru of India,Amsterdam,['Indian'],2463,4.5,,8,"[['Best restaurant period in Amsterdam', 'Good Indian restaurant in Amsterdam'], ['06/29/2015', '11/02/2013']]",/Restaurant_Review-g188590-d802000-Reviews-Guru_of_India-Amsterdam_North_Holland_Province.html,d802000,52.365,4.88307
2458,2458,Sane,Amsterdam,"['Cafe', 'Contemporary']",2464,4.5,$$ - $$$,12,"[['Nice', 'nice fresh juice bar in a great street ful...'], ['05/09/2015', '04/30/2015']]",/Restaurant_Review-g188590-d3671977-Reviews-Sane-Amsterdam_North_Holland_Province.html,d3671977,52.36994,4.90788
2459,2459,Pho House,Amsterdam,"['Asian', 'Vietnamese', 'Vegetarian Friendly']",2465,3.5,$,38,"[['Tasty Vietnamese, big portions', 'Great taste, quiet place'], ['08/09/2017', '05/17/2017']]",/Restaurant_Review-g188590-d7794219-Reviews-Pho_House-Amsterdam_North_Holland_Province.html,d7794219,52.38171,4.88894
2460,2460,Il Pecorino,Amsterdam,"['Italian', 'Pizza', 'Mediterranean', 'European', 'Vegetarian Friendly']",2466,3.5,$$ - $$$,120,"[['Great italian', 'Advise booking for this restaurant'], ['09/06/2017', '07/04/2017']]",/Restaurant_Review-g188590-d3630829-Reviews-Il_Pecorino-Amsterdam_North_Holland_Province.html,d3630829,52.38115,4.9131
2461,2461,Parkers Winebar & Restaurant,Amsterdam,['French'],2467,4.5,,2,"[['Diner with friends and discount voucher'], ['05/22/2016']]",/Restaurant_Review-g188590-d10338782-Reviews-Parkers_Winebar_Restaurant-Amsterdam_North_Holland_Province.html,d10338782,52.37917,4.8846
2462,2462,Far East,Amsterdam,,2468,4.5,,2,"[[], []]",/Restaurant_Review-g188590-d11929466-Reviews-Far_East-Amsterdam_North_Holland_Province.html,d11929466,52.41056,4.89588
2463,2463,Oz kismet,Amsterdam,['Turkish'],2469,4.5,,2,"[['Casual dining in Amsterdam'], ['04/28/2017']]",/Restaurant_Review-g188590-d12374952-Reviews-Oz_kismet-Amsterdam_North_Holland_Province.html,d12374952,52.36453,4.86158
2464,2464,Konak Restaurant,Amsterdam,"['Turkish', 'Middle Eastern', 'Halal']",2470,4,$,24,"[['Not very clean', 'Clean'], ['05/31/2016', '03/08/2016']]",/Restaurant_Review-g188590-d4291495-Reviews-Konak_Restaurant-Amsterdam_North_Holland_Province.html,d4291495,52.37992,4.83064
2465,2465,Cafe-restaurant Hesp,Amsterdam,"['Dutch', 'Pub', 'Bar', 'International', 'European']",2471,3.5,$$ - $$$,101,"[['Very good cheesecake', 'Nice place for a drink'], ['10/11/2017', '09/02/2017']]",/Restaurant_Review-g188590-d2058152-Reviews-Cafe_restaurant_Hesp-Amsterdam_North_Holland_Province.html,d2058152,52.34982,4.91244
2466,2466,Brasserie 't Plein,Amsterdam,"['French', 'Dutch', 'European']",2472,4,,7,"[[], []]",/Restaurant_Review-g188590-d2427173-Reviews-Brasserie_t_Plein-Amsterdam_North_Holland_Province.html,d2427173,52.39814,4.94177
2467,2467,West Coast Frozen Yoghurt,Amsterdam,['Cafe'],2473,4.5,$,2,"[[], []]",/Restaurant_Review-g188590-d5326143-Reviews-West_Coast_Frozen_Yoghurt-Amsterdam_North_Holland_Province.html,d5326143,52.37121,4.90874
2468,2468,da portare VIA Copernicusstraat,Amsterdam,"['Italian', 'Pizza', 'European', 'Diner']",2474,4,$$ - $$$,8,"[['great pizza', 'Waiting 45 minutes for a bad pizza..'], ['05/07/2017', '09/08/2016']]",/Restaurant_Review-g188590-d8806618-Reviews-Da_portare_VIA_Copernicusstraat-Amsterdam_North_Holland_Province.html,d8806618,52.35524,4.93784
2469,2469,Marhaba East,Amsterdam,"['Dutch', 'Moroccan', 'Mediterranean', 'European', 'Arabic', 'Vegetarian Friendly', 'Halal']",2475,4.5,$$ - $$$,2,"[['Great bang for the buck'], ['07/20/2017']]",/Restaurant_Review-g188590-d10331720-Reviews-Marhaba_East-Amsterdam_North_Holland_Province.html,d10331720,52.35664,4.91196
2470,2470,Taco Mundo Amsterdam Oud-West,Amsterdam,"['Mexican', 'Fast Food']",2476,3.5,$,22,"[['Wonderful quesadillas - not so wonderful b...', 'Good comfort late night food'], ['07/01/2017', '04/14/2017']]",/Restaurant_Review-g188590-d8606829-Reviews-Taco_Mundo_Amsterdam_Oud_West-Amsterdam_North_Holland_Province.html,d8606829,52.36531,4.87362
2471,2471,Restaurant First,Amsterdam,['Contemporary'],2478,4,$$ - $$$,10,"[['Very average, poor seating', 'Failure in the essence'], ['07/09/2017', '12/14/2016']]",/Restaurant_Review-g188590-d10342597-Reviews-Restaurant_First-Amsterdam_North_Holland_Province.html,d10342597,52.31157,4.94499
2472,2472,Steakhouse West,Amsterdam,,2479,4.5,,2,"[[], []]",/Restaurant_Review-g188590-d9562213-Reviews-Steakhouse_West-Amsterdam_North_Holland_Province.html,d9562213,52.37732,4.81476
2473,2473,Roots,Amsterdam,,2480,4.5,,8,"[['Very bland!', 'Shop is gorgeous, great food, cold atmosph...'], ['10/05/2017', '12/22/2016']]",/Restaurant_Review-g188590-d10078687-Reviews-Roots-Amsterdam_North_Holland_Province.html,d10078687,52.35338,4.85593
2474,2474,Today's,Amsterdam,"['Italian', 'Delicatessen']",2481,4.5,$$ - $$$,10,"[['Tiny but Authentic', 'No1 in Amsterdam'], ['05/26/2015', '05/23/2015']]",/Restaurant_Review-g188590-d7097894-Reviews-Today_s-Amsterdam_North_Holland_Province.html,d7097894,52.36111,4.89978
2475,2475,Halal Fried Chicken,Amsterdam,"['American', 'Halal']",2482,4,$,12,"[['Good', 'Travel'], ['07/22/2017', '10/30/2016']]",/Restaurant_Review-g188590-d9467759-Reviews-Halal_Fried_Chicken-Amsterdam_North_Holland_Province.html,d9467759,52.37986,4.83186
2476,2476,Cucina Tipica Italiana,Amsterdam,['Italian'],2483,4.5,,11,"[['Good Italian food', 'Excellent.'], ['04/08/2017', '08/11/2015']]",/Restaurant_Review-g188590-d3986064-Reviews-Cucina_Tipica_Italiana-Amsterdam_North_Holland_Province.html,d3986064,52.36389,4.88381
2477,2477,YoYo's ice corner,Amsterdam,,2484,4.5,,3,"[['Yummy Ice cream!'], ['05/05/2017']]",/Restaurant_Review-g188590-d12402266-Reviews-YoYo_s_ice_corner-Amsterdam_North_Holland_Province.html,d12402266,52.34635,4.90497
2478,2478,AY Restaurant & Bar,Amsterdam,"['Mediterranean', 'Grill']",2485,3.5,$$ - $$$,28,"[['Late night meals', 'Slow service'], ['06/20/2017', '02/07/2017']]",/Restaurant_Review-g188590-d10759144-Reviews-AY_Restaurant_Bar-Amsterdam_North_Holland_Province.html,d10759144,52.34692,4.83112
2479,2479,Pension Homeland Bar & Restaurant,Amsterdam,,2486,3.5,,6,"[['Off the beaten track but memorable', 'Good dinner, special venue'], ['12/06/2017', '11/06/2017']]",/Restaurant_Review-g188590-d12882652-Reviews-Pension_Homeland_Bar_Restaurant-Amsterdam_North_Holland_Province.html,d12882652,52.37511,4.89778
2480,2480,Ristorante Momento,Amsterdam,,2487,4.5,,6,"[['Great discovery', 'Delicious Food - Super Service'], ['10/10/2016', '08/15/2016']]",/Restaurant_Review-g188590-d10521764-Reviews-Ristorante_Momento-Amsterdam_North_Holland_Province.html,d10521764,52.35847,4.91307
2481,2481,Shukran,Amsterdam,,2488,4.5,,3,"[['Everything is homemade'], ['05/17/2015']]",/Restaurant_Review-g188590-d8090119-Reviews-Shukran-Amsterdam_North_Holland_Province.html,d8090119,52.37896,4.85139
2482,2482,Bar Centraal,Amsterdam,,2489,4,,7,"[['Great wine BAD BLOND girl.', 'Best wine and wonderful food'], ['09/21/2017', '09/19/2017']]",/Restaurant_Review-g188590-d12658683-Reviews-Bar_Centraal-Amsterdam_North_Holland_Province.html,d12658683,52.36735,4.86656
2483,2483,Mon Plat Du Jour,Amsterdam,"['French', 'International', 'Mediterranean', 'European', 'Spanish', 'Portuguese']",2490,4.5,$$ - $$$,2,"[[], []]",/Restaurant_Review-g188590-d10214486-Reviews-Mon_Plat_Du_Jour-Amsterdam_North_Holland_Province.html,d10214486,52.35624,4.88983
2484,2484,Sapori Pugliesi,Amsterdam,"['Italian', 'European']",2491,4.5,,22,"[['Lovely place to eat', 'outstanding mom & pop trattoria'], ['08/25/2015', '08/16/2015']]",/Restaurant_Review-g188590-d3838309-Reviews-Sapori_Pugliesi-Amsterdam_North_Holland_Province.html,d3838309,52.35952,4.89328
2485,2485,Restaurant Bar Bistro Select,Amsterdam,"['Dutch', 'European']",2492,4.5,,2,"[['Good chill out place', 'Cosy dutch inspired food'], ['08/06/2014', '07/17/2014']]",/Restaurant_Review-g188590-d6879059-Reviews-Restaurant_Bar_Bistro_Select-Amsterdam_North_Holland_Province.html,d6879059,52.3315,4.86849
2486,2486,Limon,Amsterdam,,2493,4,,9,"[['Great restaurant for a business lunch', 'Pretty nice food!'], ['08/15/2017', '06/18/2017']]",/Restaurant_Review-g188590-d12514291-Reviews-Limon-Amsterdam_North_Holland_Province.html,d12514291,52.33627,4.87327
2487,2487,Saporiti,Amsterdam,,2494,4.5,,2,"[['Italian food, as in Italy!'], ['05/24/2015']]",/Restaurant_Review-g188590-d8120959-Reviews-Saporiti-Amsterdam_North_Holland_Province.html,d8120959,52.34611,4.86487
2488,2488,New Happy Corner,Amsterdam,"['Chinese', 'Asian']",2495,3.5,$$ - $$$,41,"[['Good, but not stellar', 'Good food but poor service'], ['12/28/2017', '04/03/2017']]",/Restaurant_Review-g188590-d2200553-Reviews-New_Happy_Corner-Amsterdam_North_Holland_Province.html,d2200553,52.36631,4.91185
2489,2489,Topkapiamsterdam,Amsterdam,"['Lebanese', 'Moroccan', 'Mediterranean', 'Grill', 'Halal']",2496,4,,2,"[[], []]",/Restaurant_Review-g188590-d7266594-Reviews-Topkapiamsterdam-Amsterdam_North_Holland_Province.html,d7266594,52.36413,4.88434
2490,2490,Bouwman,Amsterdam,"['Dutch', 'Bar', 'Pub', 'Cafe', 'European']",2497,3.5,$,53,"[['Cosy cafe', 'Good Location'], ['12/28/2017', '10/03/2017']]",/Restaurant_Review-g188590-d4354260-Reviews-Bouwman-Amsterdam_North_Holland_Province.html,d4354260,52.37693,4.88487
2491,2491,SLA Middenweg,Amsterdam,"['Healthy', 'Soups', 'Vegetarian Friendly', 'Vegan Options']",2498,4.5,$$ - $$$,9,"[['Not very special, but OK', 'Price does not match the taste'], ['12/06/2017', '10/11/2016']]",/Restaurant_Review-g188590-d8832279-Reviews-SLA_Middenweg-Amsterdam_North_Holland_Province.html,d8832279,52.34678,4.94166
2492,2492,Jay's Juices,Amsterdam,,2499,4.5,,2,"[['Freshly squeezed Orange Juice'], ['12/27/2016']]",/Restaurant_Review-g188590-d11688907-Reviews-Jay_s_Juices-Amsterdam_North_Holland_Province.html,d11688907,42.93557,-74.18004
2493,2493,Tom Yam,Amsterdam,,2500,3.5,,9,"[['Average, but friendly', 'Obsequious service'], ['07/25/2014', '01/03/2013']]",/Restaurant_Review-g188590-d1114179-Reviews-Tom_Yam-Amsterdam_North_Holland_Province.html,d1114179,52.3682,4.89794
2494,2494,Toetanchamon,Amsterdam,"['Dutch', 'International', 'European', 'Egyptian']",2501,4,$$ - $$$,52,"[['Very polite', 'Good Egyptian food'], ['03/04/2017', '02/26/2017']]",/Restaurant_Review-g188590-d2524743-Reviews-Toetanchamon-Amsterdam_North_Holland_Province.html,d2524743,52.3781,4.81995
2495,2495,New York Pizza,Amsterdam,,2502,4,,5,"[['Always tasty!', 'Average pizza for an average price'], ['10/07/2017', '09/15/2017']]",/Restaurant_Review-g188590-d11912899-Reviews-New_York_Pizza-Amsterdam_North_Holland_Province.html,d11912899,52.36684,4.87256
2496,2496,1st Class,Amsterdam,"['European', 'Dutch']",2503,4,$$ - $$$,37,"[['Dichotomy', 'Extermely slow service and I got short cha...'], ['04/08/2017', '12/03/2016']]",/Restaurant_Review-g188590-d3223818-Reviews-1st_Class-Amsterdam_North_Holland_Province.html,d3223818,19.41527,-99.16694
2497,2497,Tasty Bakery,Amsterdam,"['American', 'Italian', 'Dutch', 'Cafe', 'European']",2504,3.5,$,15,"[['Really Tasty', 'Great food'], ['10/07/2017', '09/29/2017']]",/Restaurant_Review-g188590-d12400699-Reviews-Tasty_Bakery-Amsterdam_North_Holland_Province.html,d12400699,52.37335,4.88777
2498,2498,Westergasterras,Amsterdam,"['Bar', 'Dutch', 'International', 'European']",2505,3.5,$$ - $$$,66,"[['Relaxing place to enjoy the sun', 'Old school meat market with poor ventilati...'], ['06/14/2017', '08/11/2017']]",/Restaurant_Review-g188590-d3874037-Reviews-Westergasterras-Amsterdam_North_Holland_Province.html,d3874037,52.38698,4.86968
2499,2499,Rosticceria Italiana,Amsterdam,"['Italian', 'Delicatessen']",2506,4,,10,"[['Neighbors told me this is the best pizza p...', 'As mamma would do'], ['05/23/2016', '11/16/2014']]",/Restaurant_Review-g188590-d4760413-Reviews-Rosticceria_Italiana-Amsterdam_North_Holland_Province.html,d4760413,52.35203,4.90307
2500,2500,Hongkong kitchen,Amsterdam,"['Chinese', 'Fast Food', 'Asian', 'Diner']",2507,4,$$ - $$$,20,"[['A lucky find!', 'Yummy Street for Chinese'], ['07/04/2017', '07/03/2017']]",/Restaurant_Review-g188590-d10441444-Reviews-Hongkong_kitchen-Amsterdam_North_Holland_Province.html,d10441444,52.37493,4.89888
2501,2501,Wilhelmina Dok,Amsterdam,,2508,4,,5,"[['Beautiful view, nice food', 'Wish it was like a few years ago'], ['10/12/2017', '09/06/2017']]",/Restaurant_Review-g188590-d12539333-Reviews-Wilhelmina_Dok-Amsterdam_North_Holland_Province.html,d12539333,52.36114,4.86136
2502,2502,Halal Fried Chicken de Vlugtlaan,Amsterdam,"['American', 'Halal']",2509,4,,5,"[['Halal Food in Amsterdam', 'Almost there'], ['08/26/2017', '08/04/2016']]",/Restaurant_Review-g188590-d9467758-Reviews-Halal_Fried_Chicken_de_Vlugtlaan-Amsterdam_North_Holland_Province.html,d9467758,52.37986,4.83186
2503,2503,Boerderij Langerlust,Amsterdam,,2510,3.5,,28,"[['No service: Not interested in guests', 'Pleasant lunch on the outskirts of Amsterd...'], ['05/27/2017', '08/20/2016']]",/Restaurant_Review-g188590-d1682115-Reviews-Boerderij_Langerlust-Amsterdam_North_Holland_Province.html,d1682115,52.30979,5.00369
2504,2504,Rosita's steakhouse,Amsterdam,"['Steakhouse', 'Grill', 'Soups', 'Pizza', 'Barbecue', 'Argentinean', 'South American']",2511,4,$$ - $$$,18,"[['Very nice, service very good', 'Enjoyable lunch. Tasty steak.'], ['12/07/2017', '10/12/2017']]",/Restaurant_Review-g188590-d12908341-Reviews-Rosita_s_steakhouse-Amsterdam_North_Holland_Province.html,d12908341,52.37379,4.88225
2505,2505,Grand Cafe Mahler,Amsterdam,,2512,4,,10,"[['Mahler cafe of The Edge', 'good for an after-work drinks'], ['11/29/2016', '02/07/2016']]",/Restaurant_Review-g188590-d8854197-Reviews-Grand_Cafe_Mahler-Amsterdam_North_Holland_Province.html,d8854197,52.33663,4.86186
2506,2506,Lucky King en Hong,Amsterdam,"['Chinese', 'Cajun & Creole', 'Asian', 'Indonesian']",2513,4,,5,"[['Cheap and delicious!', 'Sate ku batata'], ['07/20/2017', '01/27/2017']]",/Restaurant_Review-g188590-d10471300-Reviews-Lucky_King_en_Hong-Amsterdam_North_Holland_Province.html,d10471300,52.31499,4.9545
2507,2507,Marrakech,Amsterdam,"['Moroccan', 'Mediterranean']",2514,4,$$ - $$$,12,"[['Nice cosy place with great taste', 'reheated food?'], ['04/28/2017', '01/01/2018']]",/Restaurant_Review-g188590-d11687174-Reviews-Marrakech-Amsterdam_North_Holland_Province.html,d11687174,52.35364,4.90224
2508,2508,Cafe-Restaurant Polder,Amsterdam,"['Dutch', 'Bar', 'European', 'Pub', 'Healthy', 'Vegetarian Friendly']",2515,4,$$ - $$$,42,"[['Great gym cafe', 'Lovely place - Lovely dinner'], ['10/29/2017', '07/23/2017']]",/Restaurant_Review-g188590-d3598733-Reviews-Cafe_Restaurant_Polder-Amsterdam_North_Holland_Province.html,d3598733,52.35491,4.95217
2509,2509,Foam Cafe,Amsterdam,"['Cafe', 'International', 'Dutch', 'European', 'Vegetarian Friendly']",2516,4,$$ - $$$,39,"[['A delightful cofffebreak after your visit!', 'Foam mostly comes with a drink attached'], ['09/05/2017', '09/05/2017']]",/Restaurant_Review-g188590-d3833027-Reviews-Foam_Cafe-Amsterdam_North_Holland_Province.html,d3833027,52.3639,4.89322
2510,2510,Fred's Steak & Ribhouse,Amsterdam,"['Argentinean', 'Steakhouse', 'Barbecue', 'European']",2517,3.5,$$ - $$$,73,"[['Not like last time.', 'Dinner for two'], ['09/28/2017', '10/28/2017']]",/Restaurant_Review-g188590-d1776893-Reviews-Fred_s_Steak_Ribhouse-Amsterdam_North_Holland_Province.html,d1776893,52.36701,4.89527
2511,2511,De Uitvreter,Amsterdam,,2518,4.5,,2,"[['perfect for an informal team dinner for up...', 'Most social diner you can have'], ['03/13/2017', '10/23/2016']]",/Restaurant_Review-g188590-d11722652-Reviews-De_Uitvreter-Amsterdam_North_Holland_Province.html,d11722652,52.37067,4.87988
2512,2512,Paper Planes,Amsterdam,['European'],2519,4.5,$$ - $$$,17,"[['The best burger ever!', 'Nice'], ['01/18/2017', '03/12/2016']]",/Restaurant_Review-g188590-d7202194-Reviews-Paper_Planes-Amsterdam_North_Holland_Province.html,d7202194,52.35563,4.88859
2513,2513,Lijn 10,Amsterdam,['Pub'],2520,4.5,,4,"[['Goulash@Home', 'Good goulash and jolly jams'], ['01/14/2016', '09/26/2013']]",/Restaurant_Review-g188590-d4943495-Reviews-Lijn_10-Amsterdam_North_Holland_Province.html,d4943495,52.37284,4.87596
