,Unnamed: 0,Name,City,CuisineStyle,Ranking,Rating,PriceRange,NumberofReviews,Reviews,URL_TA,ID_TA,lat,lng
0,0,Martine of Martine's Table,Amsterdam,"['French', 'Dutch', 'European']",1,5,$$ - $$$,136,"[['Just like home', 'A Warm Welcome to Wintry Amsterdam'], ['01/03/2018', '01/01/2018']]",/Restaurant_Review-g188590-d11752080-Reviews-Martine_of_Martine_s_Table-Amsterdam_North_Holland_Province.html,d11752080,52.37501,4.89992
1,0,De Silveren Spiegel,Amsterdam,"['Dutch', 'European', 'Vegetarian Friendly', 'Gluten Free Options']",2,4.5,$$$$,812,"[['Great food and staff', 'just perfect'], ['01/06/2018', '01/04/2018']]",/Restaurant_Review-g188590-d693419-Reviews-De_Silveren_Spiegel-Amsterdam_North_Holland_Province.html,d693419,52.37775,4.89422
2,0,La Rive,Amsterdam,"['Mediterranean', 'French', 'International', 'European', 'Vegetarian Friendly', 'Vegan Options']",3,4.5,$$$$,567,"[['Satisfaction', 'Delicious old school restaurant'], ['01/04/2018', '01/04/2018']]",/Restaurant_Review-g188590-d696959-Reviews-La_Rive-Amsterdam_North_Holland_Province.html,d696959,52.36002,4.90546
3,0,Vinkeles,Amsterdam,"['French', 'European', 'International', 'Contemporary', 'Vegetarian Friendly', 'Vegan Options', 'Gluten Free Options']",4,5,$$$$,564,"[['True five star dinner', 'A superb evening of fine dining, hospitali...'], ['12/20/2017', '12/17/2017']]",/Restaurant_Review-g188590-d1239229-Reviews-Vinkeles-Amsterdam_North_Holland_Province.html,d1239229,52.36927,4.88434
4,0,Librije's Zusje Amsterdam,Amsterdam,"['Dutch', 'European', 'International', 'Vegetarian Friendly', 'Vegan Options', 'Gluten Free Options']",5,4.5,$$$$,316,"[['Best meal.... EVER', 'super food experience'], ['01/06/2018', '01/04/2018']]",/Restaurant_Review-g188590-d6864170-Reviews-Librije_s_Zusje_Amsterdam-Amsterdam_North_Holland_Province.html,d6864170,52.36488,4.8974
5,0,Ciel Bleu Restaurant,Amsterdam,"['Contemporary', 'International', 'Vegetarian Friendly', 'Vegan Options', 'Gluten Free Options']",6,4.5,$$$$,745,"[['A treat!', 'Wow just Wow'], ['01/01/2018', '12/26/2017']]",/Restaurant_Review-g188590-d696902-Reviews-Ciel_Bleu_Restaurant-Amsterdam_North_Holland_Province.html,d696902,52.34859,4.89347
6,0,Zaza's,Amsterdam,"['French', 'International', 'Mediterranean', 'European', 'Vegetarian Friendly', 'Vegan Options', 'Gluten Free Options']",7,4.5,$$ - $$$,1455,"[['40th Birthday with my Family', 'One of the best meals ever!'], ['01/07/2018', '01/05/2018']]",/Restaurant_Review-g188590-d1014732-Reviews-Zaza_s-Amsterdam_North_Holland_Province.html,d1014732,52.37043,4.89526
7,0,Blue Pepper Restaurant And Candlelight Cruises,Amsterdam,"['Asian', 'Indonesian', 'Vegetarian Friendly', 'Vegan Options', 'Gluten Free Options']",8,4.5,$$$$,675,"[['Great Experience', 'A true delight'], ['01/08/2018', '01/07/2018']]",/Restaurant_Review-g188590-d697058-Reviews-Blue_Pepper_Restaurant_And_Candlelight_Cruises-Amsterdam_North_Holland_Province.html,d697058,52.36585,4.87823
8,0,Teppanyaki Restaurant Sazanka,Amsterdam,"['Japanese', 'Asian', 'Vegetarian Friendly', 'Vegan Options', 'Gluten Free Options']",9,4.5,$$$$,923,"[['Great Food & Service!', 'Superior food and exciting setting around...'], ['12/30/2017', '12/29/2017']]",/Restaurant_Review-g188590-d697009-Reviews-Teppanyaki_Restaurant_Sazanka-Amsterdam_North_Holland_Province.html,d697009,52.34859,4.89347
9,0,Rob Wigboldus Vishandel,Amsterdam,"['Dutch', 'Seafood', 'Fast Food']",10,4.5,$,450,"[['Excellent Herring', 'Lovely, rustic fish shop in the smack of A...'], ['01/09/2018', '01/06/2018']]",/Restaurant_Review-g188590-d1955652-Reviews-Rob_Wigboldus_Vishandel-Amsterdam_North_Holland_Province.html,d1955652,52.37415,4.89384
10,0,The Happy Bull,Amsterdam,"['American', 'Bar', 'European', 'Vegetarian Friendly', 'Gluten Free Options']",11,4.5,$$ - $$$,295,"[['Simply AMAZING!', 'Delicious Burgers'], ['01/01/2018', '11/22/2017']]",/Restaurant_Review-g188590-d10275170-Reviews-The_Happy_Bull-Amsterdam_North_Holland_Province.html,d10275170,52.35101,4.85168
11,0,Gartine,Amsterdam,"['French', 'Dutch', 'International', 'European', 'Vegetarian Friendly', 'Vegan Options', 'Gluten Free Options']",12,4.5,$$ - $$$,967,"[['A hidden gem', 'Fantastic!'], ['01/06/2018', '01/05/2018']]",/Restaurant_Review-g188590-d1014753-Reviews-Gartine-Amsterdam_North_Holland_Province.html,d1014753,52.36922,4.89169
12,0,Restaurant Adam,Amsterdam,"['French', 'European', 'Central European', 'Vegetarian Friendly', 'Vegan Options', 'Gluten Free Options']",13,4.5,$$$$,368,"[['Love it!', 'As pure as Paradise: Adam!'], ['01/10/2018', '12/18/2017']]",/Restaurant_Review-g188590-d7695005-Reviews-Restaurant_Adam-Amsterdam_North_Holland_Province.html,d7695005,52.38394,4.90298
13,0,Biercafe Gollem,Amsterdam,"['Bar', 'Pub']",14,4.5,$$ - $$$,586,"[['Awesome little pub', 'An amazing little place with a vast choice...'], ['12/17/2017', '12/13/2017']]",/Restaurant_Review-g188590-d3893242-Reviews-Biercafe_Gollem-Amsterdam_North_Holland_Province.html,d3893242,52.35617,4.89081
14,0,Restaurant Daalder,Amsterdam,"['French', 'Dutch', 'International', 'European', 'Vegetarian Friendly', 'Vegan Options', 'Gluten Free Options']",15,4.5,$$$$,1246,"[['Best meal of our trip', 'It was like falling in love..'], ['01/09/2018', '01/07/2018']]",/Restaurant_Review-g188590-d1408533-Reviews-Restaurant_Daalder-Amsterdam_North_Holland_Province.html,d1408533,52.38044,4.88552
15,0,Simul Gastronomic Situ,Athens,"['European', 'Vegetarian Friendly', 'Vegan Options', 'Gluten Free Options']",1,5,$$ - $$$,127,"[['Excellent experience', 'A nice surprise'], ['01/09/2018', '01/01/2018']]",/Restaurant_Review-g189400-d9763282-Reviews-Simul_Gastronomic_Situ-Athens_Attica.html,d9763282,38.89037,-77.03196
16,0,Cinque Wine & Deli Bar,Athens,"['Wine Bar', 'Greek', 'Delicatessen', 'Gluten Free Options']",2,5,$,1013,"[['One of the best restaurants we ever visite...', 'A truly delightful evening'], ['01/09/2018', '01/08/2018']]",/Restaurant_Review-g189400-d9462540-Reviews-Cinque_Wine_Deli_Bar-Athens_Attica.html,d9462540,37.97841,23.72335
17,0,Dinner in the Sky,Athens,"['Mediterranean', 'European', 'Greek', 'Vegetarian Friendly', 'Vegan Options', 'Gluten Free Options']",3,5,$$$$,886,"[['Great sensorial experience', 'Perfect Way to Watch the Sunset in Athens'], ['12/22/2017', '11/06/2017']]",/Restaurant_Review-g189400-d7825999-Reviews-Dinner_in_the_Sky-Athens_Attica.html,d7825999,37.97845,23.71252
18,0,Aleria,Athens,"['Greek', 'Mediterranean', 'European', 'Vegetarian Friendly', 'Vegan Options', 'Gluten Free Options']",4,5,$$$$,934,"[['Surprise Find!', 'Fabulous evening'], ['01/08/2018', '01/06/2018']]",/Restaurant_Review-g189400-d799575-Reviews-Aleria-Athens_Attica.html,d799575,37.98315,23.71773
19,0,Feyrouz,Athens,"['Lebanese', 'Fast Food', 'Mediterranean', 'Middle Eastern', 'Vegetarian Friendly', 'Vegan Options']",5,5,$,282,"[['A hidden gem in Athens', 'Not just great - this is awesome food.'], ['01/05/2018', '01/04/2018']]",/Restaurant_Review-g189400-d6784810-Reviews-Feyrouz-Athens_Attica.html,d6784810,37.97816,23.72785
20,0,Funky Gourmet,Athens,"['Mediterranean', 'European', 'Greek', 'Contemporary', 'Vegetarian Friendly', 'Vegan Options', 'Gluten Free Options']",6,5,$$$$,1046,"[['Anniversary Dinner', 'Puerto Rico meets the Brits in Funky Gourm...'], ['01/08/2018', '12/30/2017']]",/Restaurant_Review-g189400-d2168139-Reviews-Funky_Gourmet-Athens_Attica.html,d2168139,37.98317,23.71589
21,0,A Little Taste of Home,Athens,"['Turkish', 'Mediterranean', 'European', 'Greek', 'Middle Eastern', 'Vegetarian Friendly', 'Vegan Options', 'Gluten Free Options']",7,5,$$ - $$$,317,"[['Best Restaurant in Athens', 'New years Eve dinners'], ['01/09/2018', '01/08/2018']]",/Restaurant_Review-g189400-d10559098-Reviews-A_Little_Taste_of_Home-Athens_Attica.html,d10559098,37.97859,23.71026
22,0,Oroscopo,Athens,"['Italian', 'Mediterranean', 'Greek', 'Vegetarian Friendly', 'Vegan Options', 'Gluten Free Options']",8,4.5,$$ - $$$,1741,"[['Great Restaurant', 'Outstanding good and service'], ['01/07/2018', '01/06/2018']]",/Restaurant_Review-g189400-d2186282-Reviews-Oroscopo-Athens_Attica.html,d2186282,37.97614,23.7364
23,0,Ta Karamanlidika tou Fani,Athens,"['Middle Eastern', 'Mediterranean', 'Greek', 'Delicatessen', 'Gluten Free Options']",9,4.5,$$ - $$$,4234,"[['The best food experience', 'Cozy & tasy!!'], ['01/09/2018', '01/04/2018']]",/Restaurant_Review-g189400-d6852056-Reviews-Ta_Karamanlidika_tou_Fani-Athens_Attica.html,d6852056,37.98024,23.72579
24,0,Scala Vinoteca,Athens,"['Mediterranean', 'European', 'Greek', 'Wine Bar', 'Vegetarian Friendly', 'Vegan Options', 'Gluten Free Options']",10,4.5,$$ - $$$,478,"[['Dinner with Friends', 'Delicious food'], ['01/06/2018', '01/04/2018']]",/Restaurant_Review-g189400-d2454645-Reviews-Scala_Vinoteca-Athens_Attica.html,d2454645,37.98178,23.73812
25,0,Kallipateira,Athens,"['Mediterranean', 'Greek', 'Vegetarian Friendly', 'Vegan Options', 'Gluten Free Options']",11,4.5,$$ - $$$,339,"[['Traditional Greek food', 'Excellent'], ['01/02/2018', '01/01/2018']]",/Restaurant_Review-g189400-d3916147-Reviews-Kallipateira-Athens_Attica.html,d3916147,37.97673,23.72288
26,0,Gostijo,Athens,"['Mediterranean', 'Middle Eastern', 'Vegetarian Friendly', 'Vegan Options', 'Kosher', 'Gluten Free Options']",12,4.5,$$ - $$$,651,"[['Jewish Sephardi in Athens', 'Kosher restaurant in Athens'], ['12/31/2017', '12/19/2017']]",/Restaurant_Review-g189400-d2390443-Reviews-Gostijo-Athens_Attica.html,d2390443,37.97787,23.72392
27,0,Lithos,Athens,"['Mediterranean', 'Greek', 'Vegetarian Friendly', 'Vegan Options', 'Gluten Free Options']",13,4.5,$$ - $$$,3392,"[['Good value delicious food', 'Excellent New Year‚Äôs Eve dinner'], ['01/07/2018', '01/04/2018']]",/Restaurant_Review-g189400-d1151377-Reviews-Lithos-Athens_Attica.html,d1151377,37.97822,23.7236
28,0,Balcony Restaurant & Bar,Athens,"['Mediterranean', 'Greek', 'Vegetarian Friendly', 'Vegan Options', 'Gluten Free Options']",14,4.5,$$ - $$$,628,"[['Excellent restaurant', 'Great lunch'], ['01/04/2018', '12/27/2017']]",/Restaurant_Review-g189400-d10689208-Reviews-Balcony_Restaurant_Bar-Athens_Attica.html,d10689208,37.9676,23.72905
29,0,Oineas,Athens,"['Mediterranean', 'Greek', 'Vegetarian Friendly', 'Vegan Options', 'Gluten Free Options']",15,4.5,$$ - $$$,3197,"[['Very good food and atmosphere', 'Top restaurant in good Old Athens'], ['01/05/2018', '12/31/2017']]",/Restaurant_Review-g189400-d1210592-Reviews-Oineas-Athens_Attica.html,d1210592,37.978,23.72378
30,0,Uma,Barcelona,"['International', 'Mediterranean', 'Fusion', 'European', 'Spanish']",1,5,$$$$,792,"[['Perfect atmosphere and location', 'Perfection'], ['01/08/2018', '01/05/2018']]",/Restaurant_Review-g187497-d8003030-Reviews-Uma-Barcelona_Catalonia.html,d8003030,41.23594,1.81231
31,0,Viana,Barcelona,"['International', 'Mediterranean', 'Spanish', 'Vegetarian Friendly', 'Vegan Options', 'Gluten Free Options']",2,5,$$ - $$$,2707,"[['Wow! Best ever!', 'Small menu-- GET A RESERVATION'], ['01/06/2018', '01/03/2018']]",/Restaurant_Review-g187497-d8531409-Reviews-Viana-Barcelona_Catalonia.html,d8531409,41.37975,2.17622
32,0,Blavis,Barcelona,"['Mediterranean', 'European', 'Spanish', 'Vegetarian Friendly', 'Vegan Options', 'Gluten Free Options']",3,5,$$ - $$$,643,"[['The whole package', 'Incredible Service and Tapas!'], ['01/10/2018', '12/22/2017']]",/Restaurant_Review-g187497-d3353672-Reviews-Blavis-Barcelona_Catalonia.html,d3353672,41.54748,1.86139
33,0,My Restaurant,Barcelona,"['Mediterranean', 'European', 'Spanish', 'Vegetarian Friendly', 'Vegan Options', 'Gluten Free Options']",4,5,$$ - $$$,159,"[['Fantastic evening!!', 'Perfect meal'], ['01/07/2018', '01/05/2018']]",/Restaurant_Review-g187497-d12643500-Reviews-My_Restaurant-Barcelona_Catalonia.html,d12643500,41.37277,2.17215
34,0,Bodega Biarritz,Barcelona,"['Mediterranean', 'Spanish', 'Wine Bar', 'European', 'Vegetarian Friendly', 'Vegan Options', 'Gluten Free Options']",5,5,$$ - $$$,1078,"[['Deserves its reputation!', 'THESE ARE THE TAPAS!'], ['01/05/2018', '01/05/2018']]",/Restaurant_Review-g187497-d11906544-Reviews-Bodega_Biarritz-Barcelona_Catalonia.html,d11906544,41.37981,2.17612
35,0,Santa Rita Experience,Barcelona,"['Mediterranean', 'Spanish', 'European', 'Fusion', 'Vegan Options', 'Gluten Free Options']",6,5,$$$$,329,"[['Simply Excellent', ""Best Food I've had in a lifetime. Hands d...""], ['01/09/2018', '12/29/2017']]",/Restaurant_Review-g187497-d7057940-Reviews-Santa_Rita_Experience-Barcelona_Catalonia.html,d7057940,41.40881,2.20567
36,0,Rudi of Pirate Cooking,Barcelona,"['Mediterranean', 'Fusion', 'Spanish']",7,5,$$ - $$$,110,"[['Delicious and interesting night!', 'interestin experience'], ['01/09/2018', '01/07/2018']]",/Restaurant_Review-g187497-d11752110-Reviews-Rudi_of_Pirate_Cooking-Barcelona_Catalonia.html,d11752110,41.39189,2.1728
37,0,Chaka Khan,Barcelona,"['African', 'International', 'Asian', 'Middle Eastern', 'South American', 'Brazilian', 'Peruvian', 'Vegetarian Friendly', 'Vegan Options', 'Gluten Free Options']",8,5,$$ - $$$,479,"[['Impressive Diverse Menu', 'üëç'], ['01/05/2018', '01/01/2018']]",/Restaurant_Review-g187497-d12787272-Reviews-Chaka_Khan-Barcelona_Catalonia.html,d12787272,41.3797,2.16785
38,0,Spoonik Restaurant,Barcelona,"['Mexican', 'Mediterranean', 'Delicatessen', 'Colombian', 'Latin', 'Central American', 'Vegetarian Friendly', 'Gluten Free Options']",9,5,$$$$,408,"[['Great reservation', 'Incredible restaurant'], ['01/09/2018', '01/09/2018']]",/Restaurant_Review-g187497-d9566130-Reviews-Spoonik_Restaurant-Barcelona_Catalonia.html,d9566130,41.40522,2.14004
39,0,The Box,Barcelona,"['Pub', 'Latin', 'Bar', 'Street Food', 'Vegetarian Friendly']",10,4.5,$,834,"[['Awesome place to eat and drink!!', 'Great Food, Drinks and Staff.'], ['01/06/2018', '01/02/2018']]",/Restaurant_Review-g187497-d5820228-Reviews-The_Box-Barcelona_Catalonia.html,d5820228,41.3815,2.18031
40,0,Bodega Biarritz 1881,Barcelona,"['Mediterranean', 'Spanish', 'Vegetarian Friendly', 'Vegan Options']",11,4.5,$$ - $$$,2920,"[['thank you cindy and lukas!!!', 'Lovely place'], ['12/30/2017', '12/30/2017']]",/Restaurant_Review-g187497-d3832462-Reviews-Bodega_Biarritz_1881-Barcelona_Catalonia.html,d3832462,41.37981,2.17612
41,0,BelleBuon,Barcelona,"['Italian', 'Gluten Free Options']",12,4.5,$$ - $$$,1191,"[['Excellent!', 'Wonderful Italian'], ['01/07/2018', '12/26/2017']]",/Restaurant_Review-g187497-d4049034-Reviews-BelleBuon-Barcelona_Catalonia.html,d4049034,41.41122,2.17338
42,0,Acces,Barcelona,"['Fusion', 'Mediterranean', 'European', 'Spanish', 'Contemporary', 'Vegetarian Friendly', 'Vegan Options', 'Gluten Free Options']",13,4.5,$$$$,1775,"[['Fantastic Restaurant!', 'Amazing food and cosy atmosphe'], ['01/10/2018', '01/05/2018']]",/Restaurant_Review-g187497-d6277239-Reviews-Acces-Barcelona_Catalonia.html,d6277239,41.38845,2.15919
43,0,Con Gracia,Barcelona,"['Mediterranean', 'European', 'Spanish', 'International', 'Contemporary', 'Fusion', 'Vegetarian Friendly', 'Vegan Options', 'Gluten Free Options']",14,4.5,$$$$,1676,"[['Nice experience!', 'Simply irresistible taste and flavours'], ['01/08/2018', '01/05/2018']]",/Restaurant_Review-g187497-d697505-Reviews-Con_Gracia-Barcelona_Catalonia.html,d697505,41.39902,2.16001
44,0,Foc i Oli,Barcelona,"['American', 'Fast Food', 'Vegetarian Friendly']",15,4.5,,839,"[['Nice foie gras burger', 'Delicious homemade burgers!'], ['01/01/2018', '12/28/2017']]",/Restaurant_Review-g187497-d4091047-Reviews-Foc_i_Oli-Barcelona_Catalonia.html,d4091047,41.39006,2.15712
45,0,FACIL,Berlin,"['International', 'European', 'Gluten Free Options']",1,4.5,$$$$,687,"[['What a way to turn 60!', 'Only to recommend'], ['01/03/2018', '12/22/2017']]",/Restaurant_Review-g187323-d695657-Reviews-FACIL-Berlin.html,d695657,52.50937,13.37367
46,0,La Gondola Due,Berlin,"['Italian', 'Mediterranean', 'European', 'Vegetarian Friendly', 'Vegan Options', 'Gluten Free Options']",2,4.5,$$ - $$$,282,"[['Great food!', 'Very good'], ['12/17/2017', '12/04/2017']]",/Restaurant_Review-g187323-d3805087-Reviews-La_Gondola_Due-Berlin.html,d3805087,52.43754,13.23364
47,0,Ristorante A Mano,Berlin,"['Italian', 'Mediterranean', 'European', 'Vegetarian Friendly', 'Vegan Options']",3,4.5,$$ - $$$,1501,"[['Sensational!', 'Delicious food and lovely service'], ['01/08/2018', '01/07/2018']]",/Restaurant_Review-g187323-d3546513-Reviews-Ristorante_A_Mano-Berlin.html,d3546513,52.51922,13.42748
48,0,Restaurant Bieberbau,Berlin,"['German', 'Central European', 'Vegetarian Friendly', 'Vegan Options', 'Gluten Free Options']",4,4.5,$$$$,621,"[['Excellent restaurant', 'Perfect Birthday treat'], ['12/27/2017', '12/18/2017']]",/Restaurant_Review-g187323-d1344159-Reviews-Restaurant_Bieberbau-Berlin.html,d1344159,52.4797,13.33371
49,0,El Loco,Berlin,"['Mexican', 'Central American', 'Vegetarian Friendly', 'Vegan Options']",5,5,$$ - $$$,171,"[['Join the Loco family üòâ', 'Best sweet potato fries!'], ['11/07/2017', '10/30/2017']]",/Restaurant_Review-g187323-d6499724-Reviews-El_Loco-Berlin.html,d6499724,-22.45177,-68.93671
50,0,Flamingo Fresh Food Bar,Berlin,"['Cafe', 'International', 'European', 'Healthy', 'Soups', 'Vegetarian Friendly', 'Vegan Options', 'Gluten Free Options']",6,4.5,$,636,"[['Recommend', 'Awesome service and a great, cheap meal!!!'], ['12/29/2017', '12/17/2017']]",/Restaurant_Review-g187323-d1953128-Reviews-Flamingo_Fresh_Food_Bar-Berlin.html,d1953128,52.51943,13.38534
51,0,Mabuhay - Indonesian Restaurant,Berlin,"['Asian', 'Indonesian', 'Vegetarian Friendly', 'Vegan Options', 'Gluten Free Options']",7,4.5,$,527,"[['Decent food for low price', 'Best indonesian restaurant in berlin'], ['12/26/2017', '12/11/2017']]",/Restaurant_Review-g187323-d3422489-Reviews-Mabuhay_Indonesian_Restaurant-Berlin.html,d3422489,52.50439,13.37568
52,0,Trattoria Portofino,Berlin,"['Italian', 'Pizza', 'Mediterranean', 'European', 'Vegetarian Friendly', 'Vegan Options']",8,4.5,$,344,"[['Best part of Berlin', 'Solid Italian food in wonderful atmosphere'], ['12/13/2017', '12/08/2017']]",/Restaurant_Review-g187323-d8685515-Reviews-Trattoria_Portofino-Berlin.html,d8685515,52.51229,13.44827
53,0,Haveli,Berlin,"['Indian', 'Asian', 'Vegetarian Friendly', 'Vegan Options', 'Gluten Free Options']",9,4.5,$$ - $$$,984,"[['Excellent and the most authentic Indian fo...', 'Authentic Indian taste'], ['01/01/2018', '12/31/2017']]",/Restaurant_Review-g187323-d1875899-Reviews-Haveli-Berlin.html,d1875899,52.49591,13.33767
54,0,Burgermeister,Berlin,"['American', 'Fast Food']",10,4.5,$,3703,"[['Awesome burgers', 'Burger!'], ['01/09/2018', '01/07/2018']]",/Restaurant_Review-g187323-d947082-Reviews-Burgermeister-Berlin.html,d947082,52.49929,13.41847
55,0,Patta Finest Baked Potatoes,Berlin,"['Fusion', 'Vegetarian Friendly', 'Vegan Options', 'Gluten Free Options']",11,4.5,$,332,"[['Unique twist with potatoes', 'Super tasty baked potatoes!'], ['01/06/2018', '01/01/2018']]",/Restaurant_Review-g187323-d7607553-Reviews-Patta_Finest_Baked_Potatoes-Berlin.html,d7607553,52.51072,13.45739
56,0,Ristorante Peperoncino,Berlin,"['Italian', 'Vegetarian Friendly', 'Vegan Options']",12,4.5,$$ - $$$,542,"[['best', 'Excellent, Italian cuisine in super-cozy f...'], ['01/06/2018', '12/29/2017']]",/Restaurant_Review-g187323-d1342567-Reviews-Ristorante_Peperoncino-Berlin.html,d1342567,52.49165,13.41391
57,0,PHO - Noodlebar,Berlin,"['Asian', 'Vietnamese', 'Vegetarian Friendly', 'Vegan Options', 'Gluten Free Options']",13,4.5,$,126,"[['Tasty Food', 'Fresh food, great taste!'], ['01/09/2018', '01/07/2018']]",/Restaurant_Review-g187323-d12220100-Reviews-PHO_Noodlebar-Berlin.html,d12220100,52.50646,13.3329
58,0,Yarok Fine Syrian Food from Damascus,Berlin,"['Mediterranean', 'Middle Eastern', 'Vegetarian Friendly', 'Vegan Options', 'Halal', 'Gluten Free Options']",14,4.5,$,454,"[['Good middle eastern food at fair prices', 'Fresh and delicious'], ['01/07/2018', '01/03/2018']]",/Restaurant_Review-g187323-d4583605-Reviews-Yarok_Fine_Syrian_Food_from_Damascus-Berlin.html,d4583605,52.52816,13.3921
59,0,Hackethals,Berlin,"['German', 'Bar', 'European', 'Pub', 'Central European', 'Gastropub']",15,4.5,$$ - $$$,893,"[['Authentic brilliance', 'Traditional German restaurant'], ['01/09/2018', '01/08/2018']]",/Restaurant_Review-g187323-d944596-Reviews-Hackethals-Berlin.html,d944596,52.53648,13.3798
60,0,Roxor BRGR & Beer,Bratislava,"['American', 'Bar', 'Fast Food', 'Diner', 'Gastropub']",1,5,$,236,"[['Outstanding burger and fries', ""One of the best burger I've ever eat""], ['02/26/2018', '02/25/2018']]",/Restaurant_Review-g274924-d8681780-Reviews-Roxor_BRGR_Beer-Bratislava_Bratislava_Region.html,d8681780,48.12011,17.10313
61,0,BeAbout,Bratislava,"['American', 'Bar', 'Vegetarian Friendly']",2,4.5,$$ - $$$,304,"[['Just wow!', 'Great choice'], ['02/22/2018', '02/21/2018']]",/Restaurant_Review-g274924-d4834344-Reviews-BeAbout-Bratislava_Bratislava_Region.html,d4834344,48.14042,17.11516
62,0,Gatto Matto Ristorante,Bratislava,"['Italian', 'Pizza', 'Mediterranean', 'European', 'Vegetarian Friendly', 'Vegan Options']",3,4.5,$$ - $$$,557,"[['""Best service I\'ve ever had..."" D. Lambie', 'Damn good'], ['02/25/2018', '02/17/2018']]",/Restaurant_Review-g274924-d1112750-Reviews-Gatto_Matto_Ristorante-Bratislava_Bratislava_Region.html,d1112750,48.14236,17.10737
63,0,Bistro Soho,Bratislava,"['Asian', 'Thai', 'Vegetarian Friendly', 'Vegan Options', 'Gluten Free Options']",4,4.5,$$ - $$$,618,"[['Very Nice Dinner', 'Conveniant and tasty'], ['02/19/2018', '02/19/2018']]",/Restaurant_Review-g274924-d7314484-Reviews-Bistro_Soho-Bratislava_Bratislava_Region.html,d7314484,48.14478,17.11603
64,0,Zeleny Rodrigez,Bratislava,"['European', 'Eastern European', 'Central European', 'International', 'Vegetarian Friendly', 'Vegan Options', 'Gluten Free Options']",5,4.5,$$ - $$$,721,"[['Tasty food and super nice owner', 'Excellent food'], ['02/24/2018', '02/11/2018']]",/Restaurant_Review-g274924-d5567615-Reviews-Zeleny_Rodrigez-Bratislava_Bratislava_Region.html,d5567615,48.14466,17.10216
65,0,Modra Hviezda,Bratislava,"['European', 'Slovenian', 'Eastern European', 'Central European', 'Vegetarian Friendly', 'Gluten Free Options']",6,4.5,$$ - $$$,992,"[['Amazing food', 'Fantastic meal in unique setting'], ['02/17/2018', '02/15/2018']]",/Restaurant_Review-g274924-d697372-Reviews-Modra_Hviezda-Bratislava_Bratislava_Region.html,d697372,48.14165,17.10337
66,0,Bratislavsky Mestiansky Pivovar,Bratislava,"['Brew Pub', 'Grill', 'Gastropub', 'Eastern European', 'Vegetarian Friendly']",7,4.5,$$ - $$$,541,"[['Great place', 'Good food, nice atmosphere'], ['02/17/2018', '02/16/2018']]",/Restaurant_Review-g274924-d6028618-Reviews-Bratislavsky_Mestiansky_Pivovar-Bratislava_Bratislava_Region.html,d6028618,48.14547,17.11822
67,0,FABRIKA The Beer Pub,Bratislava,"['Bar', 'European', 'Pub', 'Central European', 'Brew Pub', 'International', 'Vegetarian Friendly', 'Gluten Free Options']",8,4.5,$$ - $$$,765,"[['great pub for food and drinks', 'Pleasant bar with very good craft beers'], ['02/25/2018', '02/21/2018']]",/Restaurant_Review-g274924-d6821803-Reviews-FABRIKA_The_Beer_Pub-Bratislava_Bratislava_Region.html,d6821803,48.15191,17.1067
68,0,Hradna Hviezda,Bratislava,"['European', 'Eastern European', 'Central European', 'Vegetarian Friendly', 'Vegan Options', 'Gluten Free Options']",9,4.5,$$ - $$$,220,"[['Wedding Reception', 'Lunch at the castle'], ['02/25/2018', '02/20/2018']]",/Restaurant_Review-g274924-d3722648-Reviews-Hradna_Hviezda-Bratislava_Bratislava_Region.html,d3722648,48.1303,17.21371
69,0,Bratislavsky Mestiansky pivovar,Bratislava,"['Bar', 'European', 'Pub', 'Slovenian', 'Czech', 'Eastern European', 'Central European', 'Brew Pub', 'Vegetarian Friendly', 'Gluten Free Options']",10,4.5,$$ - $$$,1930,"[['Excellent restaurant close to the city cen...', 'Saturday lunch'], ['02/25/2018', '02/24/2018']]",/Restaurant_Review-g274924-d1852609-Reviews-Bratislavsky_Mestiansky_pivovar-Bratislava_Bratislava_Region.html,d1852609,48.14547,17.11822
70,0,Dolnozemska Krcma,Bratislava,"['European', 'Eastern European', 'Central European', 'Vegetarian Friendly']",11,4.5,$$ - $$$,129,"[['Food from tatra mountains', 'Tasty lunch'], ['02/23/2018', '02/03/2018']]",/Restaurant_Review-g274924-d12031009-Reviews-Dolnozemska_Krcma-Bratislava_Bratislava_Region.html,d12031009,48.14272,17.10842
71,0,Green Buddha,Bratislava,"['Asian', 'Thai', 'Fusion', 'Vegetarian Friendly', 'Vegan Options', 'Gluten Free Options']",12,4.5,$$ - $$$,623,"[['Excellent Food.', 'Best pad thai'], ['02/23/2018', '02/23/2018']]",/Restaurant_Review-g274924-d3603211-Reviews-Green_Buddha-Bratislava_Bratislava_Region.html,d3603211,48.14306,17.10728
72,0,Prasna Basta,Bratislava,"['Austrian', 'European', 'Czech', 'Eastern European', 'Central European', 'Vegetarian Friendly', 'Gluten Free Options']",13,4.5,$$ - $$$,1532,"[['Beautiful food.', 'Good Slovakian Food'], ['02/20/2018', '02/16/2018']]",/Restaurant_Review-g274924-d697342-Reviews-Prasna_Basta-Bratislava_Bratislava_Region.html,d697342,48.14513,17.10766
73,0,Sky Bar & Restaurant,Bratislava,"['European', 'Asian', 'Thai', 'Vegetarian Friendly', 'Vegan Options', 'Gluten Free Options']",14,4.5,$$ - $$$,646,"[['Magnificent quirky cocktails', 'Afternoon Cocktails'], ['02/20/2018', '02/13/2018']]",/Restaurant_Review-g274924-d1804870-Reviews-Sky_Bar_Restaurant-Bratislava_Bratislava_Region.html,d1804870,48.14886,17.11043
74,0,Divny Janko,Bratislava,"['European', 'Eastern European', 'Central European', 'Vegetarian Friendly']",15,4,$,688,"[['Good food for a great price', 'Hidden Gem'], ['02/25/2018', '01/11/2018']]",/Restaurant_Review-g274924-d1152951-Reviews-Divny_Janko-Bratislava_Bratislava_Region.html,d1152951,48.151,17.1098
75,0,Le Rabassier,Brussels,"['Belgian', 'European', 'French', 'Vegetarian Friendly', 'Gluten Free Options']",1,5,$$$$,525,"[['Birthday treated that was worth the trip!', 'A night to remember!'], ['02/23/2018', '02/18/2018']]",/Restaurant_Review-g188644-d6732421-Reviews-Le_Rabassier-Brussels.html,d6732421,50.84191,4.35312
76,0,Tonton Garby,Brussels,"['Belgian', 'European', 'Vegetarian Friendly', 'Vegan Options']",2,5,$,1141,"[['So happy we went here', 'Amazing'], ['02/24/2018', '02/21/2018']]",/Restaurant_Review-g188644-d5826726-Reviews-Tonton_Garby-Brussels.html,d5826726,50.84522,4.35476
77,0,Au Cor de Chasse,Brussels,"['Brazilian', 'Seafood', 'European', 'Portuguese', 'Vegetarian Friendly', 'Gluten Free Options']",3,4.5,$$ - $$$,428,"[['Culinary happiness @ the heart of Brussels', 'A hidden gem'], ['02/26/2018', '02/22/2018']]",/Restaurant_Review-g950780-d2600929-Reviews-Au_Cor_de_Chasse-Etterbeek_Brussels.html,d2600929,50.82951,4.39019
78,0,Le Wine Bar des Marolles,Brussels,"['French', 'Belgian', 'European', 'Gastropub', 'Vegetarian Friendly']",4,4.5,$$ - $$$,792,"[['Cosy, friendly, tasty', 'Chic not cheap'], ['01/29/2018', '01/22/2018']]",/Restaurant_Review-g188644-d1635467-Reviews-Le_Wine_Bar_des_Marolles-Brussels.html,d1635467,50.83767,4.34926
79,0,Pasta Divina,Brussels,"['Italian', 'Mediterranean', 'European', 'Vegetarian Friendly', 'Vegan Options']",5,4.5,$$ - $$$,2140,"[['Absolutely divine !', 'Miriam made my night!'], ['02/21/2018', '02/20/2018']]",/Restaurant_Review-g188644-d2208064-Reviews-Pasta_Divina-Brussels.html,d2208064,50.84685,4.35512
80,0,Le Bistro,Brussels,"['French', 'Belgian', 'Bar', 'Seafood', 'European', 'Central European', 'Vegetarian Friendly', 'Vegan Options']",6,4.5,$$ - $$$,1569,"[['Authentic Belgian Experience', 'Should visit!'], ['02/25/2018', '02/20/2018']]",/Restaurant_Review-g188644-d8461423-Reviews-Le_Bistro-Brussels.html,d8461423,50.82338,4.35857
81,0,La table de mus,Brussels,"['French', 'European', 'Gluten Free Options']",7,4.5,$$$$,363,"[['Excellent Food And Service!', 'Superb dining experience'], ['01/25/2018', '01/20/2018']]",/Restaurant_Review-g188644-d8770485-Reviews-La_table_de_mus-Brussels.html,d8770485,50.85894,4.41388
82,0,The Lobster House,Brussels,"['Belgian', 'Seafood', 'European', 'Vegetarian Friendly', 'Vegan Options', 'Gluten Free Options']",8,4.5,$$ - $$$,812,"[['Best Seafood', 'Very good'], ['02/25/2018', '02/23/2018']]",/Restaurant_Review-g188644-d1910997-Reviews-The_Lobster_House-Brussels.html,d1910997,50.84785,4.35466
83,0,Comme chez Soi,Brussels,"['French', 'Belgian', 'European', 'Vegetarian Friendly', 'Gluten Free Options']",9,4.5,$$$$,854,"[['The heritage of Pierre Wynants', 'Totally worth it'], ['01/22/2018', '01/19/2018']]",/Restaurant_Review-g188644-d691977-Reviews-Comme_chez_Soi-Brussels.html,d691977,50.84242,4.34595
84,0,Le Chou de Bruxelles,Brussels,"['Belgian', 'Seafood', 'Vegetarian Friendly', 'Gluten Free Options']",10,4.5,$$ - $$$,956,"[['Moules', 'Outstanding mussels'], ['02/25/2018', '02/16/2018']]",/Restaurant_Review-g1136493-d1013936-Reviews-Le_Chou_de_Bruxelles-Ixelles_Brussels.html,d1013936,50.82923,4.35916
85,0,Colonel,Brussels,['Steakhouse'],11,4.5,$$$$,607,"[['Wow', 'Decent steak'], ['02/21/2018', '02/21/2018']]",/Restaurant_Review-g188644-d7243845-Reviews-Colonel-Brussels.html,d7243845,50.83398,4.35535
86,0,Moeder Lambic Original,Brussels,"['Belgian', 'Brew Pub', 'Bar', 'Pub']",12,4.5,$$ - $$$,689,"[['Amazing belgian beer experience', 'Great Atmosphere for the Beer Nerd'], ['02/04/2018', '01/26/2018']]",/Restaurant_Review-g188644-d1440912-Reviews-Moeder_Lambic_Original-Brussels.html,d1440912,50.82401,4.34488
87,0,Bia Mara,Brussels,"['Seafood', 'Fast Food', 'European', 'British']",13,4.5,$,1869,"[['Good Value', 'Great fresh food and excellent service at...'], ['02/24/2018', '02/22/2018']]",/Restaurant_Review-g188644-d3600650-Reviews-Bia_Mara-Brussels.html,d3600650,50.84872,4.35087
88,0,Winehouse Osteria,Brussels,"['Italian', 'European', 'Wine Bar', 'Vegetarian Friendly', 'Vegan Options', 'Gluten Free Options']",14,4.5,$$ - $$$,539,"[[""L'italia che ci piace"", 'Amazing food and wine'], ['02/09/2018', '01/29/2018']]",/Restaurant_Review-g188644-d6475366-Reviews-Winehouse_Osteria-Brussels.html,d6475366,50.8465,4.34661
89,0,Noordzee Mer du Nord,Brussels,"['Belgian', 'Seafood', 'European', 'Soups', 'Gluten Free Options']",15,4.5,$$ - $$$,2050,"[['Great food place', 'Just try!'], ['02/22/2018', '02/14/2018']]",/Restaurant_Review-g188644-d1133830-Reviews-Noordzee_Mer_du_Nord-Brussels.html,d1133830,50.83937,4.37181
90,0,Comme Chez Soi,Budapest,"['Italian', 'Mediterranean', 'European', 'Hungarian', 'Vegetarian Friendly', 'Gluten Free Options']",1,5,$$ - $$$,4437,"[['Great place!', 'Best best best'], ['01/07/2018', '01/05/2018']]",/Restaurant_Review-g274887-d794237-Reviews-Comme_Chez_Soi-Budapest_Central_Hungary.html,d794237,47.49969,19.05503
91,0,Bors GasztroBar,Budapest,"['Fast Food', 'International', 'European', 'Street Food', 'Soups', 'Hungarian', 'Vegetarian Friendly', 'Vegan Options', 'Gluten Free Options']",2,5,$,2373,"[['The best of soup & sandwich', 'DO YOURSELF A SOLID, eat here.'], ['01/07/2018', '01/06/2018']]",/Restaurant_Review-g274887-d3700225-Reviews-Bors_GasztroBar-Budapest_Central_Hungary.html,d3700225,47.49673,19.06365
92,0,Local Korner,Budapest,"['Pizza', 'Vegan Options']",3,4.5,$,789,"[['Best pizza from Budapest...!!!', 'Very good'], ['01/04/2018', '01/03/2018']]",/Restaurant_Review-g274887-d7772540-Reviews-Local_Korner-Budapest_Central_Hungary.html,d7772540,47.49517,19.05769
93,0,Eat & Meet,Budapest,"['European', 'Eastern European', 'Central European', 'Hungarian', 'Vegetarian Friendly', 'Gluten Free Options']",4,5,$$ - $$$,409,"[['Genuine Hungarian Food & Hospitality', 'Best night in Budapest'], ['12/13/2017', '12/09/2017']]",/Restaurant_Review-g274887-d7761725-Reviews-Eat_Meet-Budapest_Central_Hungary.html,d7761725,47.54849,19.06637
94,0,Caviar&Bull,Budapest,"['Seafood', 'International', 'Mediterranean', 'European', 'Central European', 'Vegetarian Friendly', 'Vegan Options', 'Gluten Free Options']",5,5,$$$$,563,"[['Wonderful in every way', 'Superbe culinary experience'], ['01/08/2018', '01/08/2018']]",/Restaurant_Review-g274887-d12503281-Reviews-Caviar_Bull-Budapest_Central_Hungary.html,d12503281,47.50259,19.06662
95,0,Mazi,Budapest,"['Greek', 'Mediterranean', 'European', 'Vegan Options', 'Gluten Free Options']",6,4.5,$$ - $$$,1127,"[['Excellent food', 'Exceptional service with good food!'], ['01/08/2018', '01/08/2018']]",/Restaurant_Review-g274887-d10483511-Reviews-Mazi-Budapest_Central_Hungary.html,d10483511,47.50761,19.05249
96,0,Arany Kaviar Restaurant,Budapest,"['European', 'Russian', 'Eastern European', 'Central European', 'International', 'Vegetarian Friendly', 'Gluten Free Options']",7,4.5,$$$$,643,"[['An amazing experience!', 'Interesting Place'], ['01/07/2018', '01/02/2018']]",/Restaurant_Review-g274887-d696011-Reviews-Arany_Kaviar_Restaurant-Budapest_Central_Hungary.html,d696011,47.50633,19.02847
97,0,Baraka,Budapest,"['International', 'European', 'Fusion', 'Contemporary', 'Vegetarian Friendly', 'Vegan Options', 'Gluten Free Options']",8,4.5,$$$$,628,"[['Brilliant place', 'AMAZING'], ['01/02/2018', '01/02/2018']]",/Restaurant_Review-g274887-d696018-Reviews-Baraka-Budapest_Central_Hungary.html,d696018,47.49748,19.04924
98,0,Meatology Budapest,Budapest,"['Fast Food', 'Grill', 'Contemporary', 'Gastropub', 'Street Food', 'Central European', 'Gluten Free Options']",9,4.5,$,623,"[['Worth seeking out', 'Yum!'], ['01/08/2018', '01/08/2018']]",/Restaurant_Review-g274887-d11890893-Reviews-Meatology_Budapest-Budapest_Central_Hungary.html,d11890893,47.50082,19.05486
99,0,Lucky 7 Burgers & More,Budapest,"['Fast Food', 'Street Food', 'American', 'Diner', 'Vegetarian Friendly']",10,4.5,$,2848,"[['Great place!', 'Fantastic burger'], ['01/06/2018', '01/05/2018']]",/Restaurant_Review-g274887-d8144714-Reviews-Lucky_7_Burgers_More-Budapest_Central_Hungary.html,d8144714,47.49321,19.05224
100,0,KonyvBar & Restaurant,Budapest,"['International', 'European', 'Central European', 'Hungarian', 'Vegetarian Friendly', 'Vegan Options', 'Gluten Free Options']",11,4.5,$$ - $$$,1403,"[['Unexpectedly AMAZING', 'Cozy little place'], ['01/05/2018', '01/03/2018']]",/Restaurant_Review-g274887-d7608405-Reviews-KonyvBar_Restaurant-Budapest_Central_Hungary.html,d7608405,47.50064,19.06403
101,0,bpBARbq,Budapest,"['American', 'Bar', 'Barbecue', 'Street Food', 'Vegetarian Friendly', 'Gluten Free Options']",12,5,$$ - $$$,387,"[['Delicious food', 'Best Burgers, nice service.'], ['01/07/2018', '01/06/2018']]",/Restaurant_Review-g274887-d11616504-Reviews-BpBARbq-Budapest_Central_Hungary.html,d11616504,47.49893,19.06711
102,0,Hungarikum Bisztro,Budapest,"['Hungarian', 'Vegetarian Friendly', 'Vegan Options']",13,4.5,$$ - $$$,7575,"[['Traditional food, all local and great', 'Cosy and friendly!'], ['01/08/2018', '01/08/2018']]",/Restaurant_Review-g274887-d3351231-Reviews-Hungarikum_Bisztro-Budapest_Central_Hungary.html,d3351231,47.5036,19.04811
103,0,Pizzica,Budapest,"['Italian', 'Pizza', 'Fast Food', 'Mediterranean', 'European', 'Vegetarian Friendly', 'Vegan Options']",14,4.5,$,414,"[['Nice job', 'Yummy pizza and beer!'], ['01/08/2018', '01/02/2018']]",/Restaurant_Review-g274887-d6899027-Reviews-Pizzica-Budapest_Central_Hungary.html,d6899027,47.50424,19.0592
104,0,Don Pepe Menyecske,Budapest,"['Italian', 'Pizza', 'Mediterranean', 'European', 'International', 'Vegetarian Friendly', 'Vegan Options']",15,5,$$ - $$$,388,"[['Great restaurant', 'A friendly restaurant with a delicious kit...'], ['12/11/2017', '11/19/2017']]",/Restaurant_Review-g274887-d1207664-Reviews-Don_Pepe_Menyecske-Budapest_Central_Hungary.html,d1207664,47.46195,19.01539
105,0,Zahida at Westmarket,Copenhagen,"['Indian', 'Middle Eastern', 'Pakistani', 'Vegetarian Friendly', 'Vegan Options', 'Gluten Free Options']",1,5,$$ - $$$,408,"[['Pakistani food from the heart', 'DELICIOUS FUN'], ['12/30/2017', '12/30/2017']]",/Restaurant_Review-g189541-d12214757-Reviews-Zahida_at_Westmarket-Copenhagen_Zealand.html,d12214757,55.66972,12.54746
106,0,Restaurant Krebsegaarden,Copenhagen,"['European', 'Scandinavian', 'Danish', 'Norwegian', 'Vegetarian Friendly', 'Vegan Options', 'Gluten Free Options']",2,5,$$$$,1071,"[['Delightful, Delicious, Warm & Affordable', 'Simply Amazing'], ['01/04/2018', '12/24/2017']]",/Restaurant_Review-g189541-d808246-Reviews-Restaurant_Krebsegaarden-Copenhagen_Zealand.html,d808246,55.67875,12.56993
107,0,Grams Laekkerier (closed to 8. jan.),Copenhagen,"['Cafe', 'Fast Food', 'European', 'Soups', 'Danish', 'Vegetarian Friendly', 'Vegan Options', 'Gluten Free Options']",3,5,$,550,"[['Very friendly and excellent sandwiches!', 'Highly recommended'], ['01/02/2018', '12/18/2017']]",/Restaurant_Review-g189541-d1145867-Reviews-Grams_Laekkerier_closed_to_8_jan-Copenhagen_Zealand.html,d1145867,55.67104,12.56292
108,0,Pizzeria MaMeMi WestMarket,Copenhagen,"['Italian', 'Pizza', 'Mediterranean', 'European', 'Vegetarian Friendly', 'Vegan Options']",4,5,$,332,"[['Excellent italian pizza', 'Fabulous'], ['01/08/2018', '01/07/2018']]",/Restaurant_Review-g189541-d7686629-Reviews-Pizzeria_MaMeMi_WestMarket-Copenhagen_Zealand.html,d7686629,55.66649,12.5521
109,0,The Olive Kitchen & Bar,Copenhagen,"['International', 'European', 'Gluten Free Options']",5,5,$$ - $$$,1316,"[['Great food and good prices!', 'Twice Impressed'], ['01/07/2018', '01/06/2018']]",/Restaurant_Review-g189541-d9768029-Reviews-The_Olive_Kitchen_Bar-Copenhagen_Zealand.html,d9768029,55.68123,12.5712
110,0,Geranium,Copenhagen,"['European', 'Scandinavian', 'Danish', 'Vegetarian Friendly', 'Vegan Options', 'Gluten Free Options']",6,4.5,$$$$,872,"[['WOW, Please go', 'Heavenly Experience'], ['01/07/2018', '01/03/2018']]",/Restaurant_Review-g189541-d1945657-Reviews-Geranium-Copenhagen_Zealand.html,d1945657,55.70385,12.57187
111,0,Banana Joe,Copenhagen,"['American', 'Fast Food', 'Vegetarian Friendly']",7,5,$,321,"[['Great juicy burgers', 'Yolo'], ['12/30/2017', '12/30/2017']]",/Restaurant_Review-g189541-d4541300-Reviews-Banana_Joe-Copenhagen_Zealand.html,d4541300,55.69,12.55904
112,0,The Red Box,Copenhagen,"['French', 'Asian', 'Fusion', 'Vegetarian Friendly', 'Gluten Free Options']",8,4.5,$$ - $$$,420,"[['Superb!', 'Top class'], ['12/10/2017', '11/27/2017']]",/Restaurant_Review-g189541-d1815506-Reviews-The_Red_Box-Copenhagen_Zealand.html,d1815506,55.683,12.5866
113,0,Frederiks Have,Copenhagen,"['European', 'Scandinavian', 'Danish', 'International', 'Vegetarian Friendly', 'Gluten Free Options']",9,4.5,$$$$,452,"[['Family owned high quality restaurant', 'Fantastic lunch'], ['11/07/2017', '11/01/2017']]",/Restaurant_Review-g806262-d1129902-Reviews-Frederiks_Have-Frederiksberg_Copenhagen_Zealand.html,d1129902,55.68385,12.59484
114,0,Souls,Copenhagen,"['Cafe', 'European', 'Healthy', 'Vegetarian Friendly', 'Vegan Options', 'Gluten Free Options']",10,4.5,$$ - $$$,406,"[['Amazing vegan food!', 'Deliciously fresh & healthy food'], ['01/03/2018', '12/29/2017']]",/Restaurant_Review-g189541-d10153884-Reviews-Souls-Copenhagen_Zealand.html,d10153884,55.70344,12.58529
115,0,Restaurant Radio,Copenhagen,"['European', 'Scandinavian', 'Danish', 'Vegetarian Friendly', 'Gluten Free Options']",11,4.5,$$$$,758,"[['Great showcase of Danish cuisine', 'RESTAURANT RADIO'], ['01/08/2018', '12/28/2017']]",/Restaurant_Review-g189541-d2389863-Reviews-Restaurant_Radio-Copenhagen_Zealand.html,d2389863,55.68208,12.55415
116,0,Noma,Copenhagen,"['European', 'Scandinavian', 'Danish', 'Vegetarian Friendly', 'Vegan Options', 'Gluten Free Options']",12,4.5,$$$$,1464,"[['Best 30th Birthday gift ever', 'Wait you will be rewarded.'], ['01/09/2018', '12/30/2017']]",/Restaurant_Review-g189541-d694971-Reviews-Noma-Copenhagen_Zealand.html,d694971,55.67745,12.59732
117,0,Pizzeria La Fiorita,Copenhagen,"['Italian', 'Pizza', 'Vegetarian Friendly', 'Vegan Options']",13,4.5,$,485,"[['Very good', 'Very authentic'], ['01/08/2018', '01/04/2018']]",/Restaurant_Review-g189541-d942236-Reviews-Pizzeria_La_Fiorita-Copenhagen_Zealand.html,d942236,55.68356,12.56448
118,0,Brasserie Degas,Copenhagen,"['French', 'International', 'Gluten Free Options', 'Vegetarian Friendly']",14,4.5,$$ - $$$,739,"[['New year foodie heaven', 'Awesome!'], ['01/03/2018', '12/16/2017']]",/Restaurant_Review-g189541-d2262418-Reviews-Brasserie_Degas-Copenhagen_Zealand.html,d2262418,55.67308,12.55942
119,0,KoD Vesterbro,Copenhagen,"['Steakhouse', 'Barbecue', 'European', 'Danish', 'Gluten Free Options']",15,4.5,$$ - $$$,361,"[['Great food. Only let down by forgetful ser...', 'Delicious and very well presented.'], ['01/03/2018', '12/28/2017']]",/Restaurant_Review-g189541-d10021446-Reviews-KoD_Vesterbro-Copenhagen_Zealand.html,d10021446,55.67462,12.56449
120,0,Mulberry Garden,Dublin,"['Irish', 'European', 'Contemporary', 'Vegetarian Friendly', 'Vegan Options', 'Gluten Free Options']",1,4.5,$$$$,609,"[['Great Experience on Food and Service - Str...', 'Great food and super professional staff!'], ['01/08/2018', '01/02/2018']]",/Restaurant_Review-g186605-d2239110-Reviews-Mulberry_Garden-Dublin_County_Dublin.html,d2239110,53.37105,-6.37703
121,0,Bloom Brasserie,Dublin,"['Irish', 'European', 'Wine Bar', 'Central European', 'Vegetarian Friendly', 'Vegan Options', 'Gluten Free Options']",2,4.5,$$ - $$$,1329,"[['Good but no wow factor', 'Great Brunch'], ['01/06/2018', '01/06/2018']]",/Restaurant_Review-g186605-d1587791-Reviews-Bloom_Brasserie-Dublin_County_Dublin.html,d1587791,53.33376,-6.24474
122,0,The Vintage Kitchen,Dublin,"['Irish', 'European', 'Soups', 'Vegetarian Friendly', 'Vegan Options', 'Gluten Free Options']",3,4.5,$$ - $$$,1644,"[['Plan on spending a while, for a truly fabu...', 'Wow'], ['01/07/2018', '01/06/2018']]",/Restaurant_Review-g186605-d3873866-Reviews-The_Vintage_Kitchen-Dublin_County_Dublin.html,d3873866,53.34684,-6.25571
123,0,Chapter One,Dublin,"['Irish', 'European', 'Contemporary', 'Vegetarian Friendly', 'Vegan Options', 'Gluten Free Options']",4,4.5,$$$$,2000,"[['Celebration Meal', 'Christmas Lunch'], ['01/03/2018', '01/02/2018']]",/Restaurant_Review-g186605-d696187-Reviews-Chapter_One-Dublin_County_Dublin.html,d696187,53.35423,-6.26389
124,0,Dax Restaurant,Dublin,"['French', 'European', 'Contemporary', 'Healthy', 'Vegetarian Friendly', 'Vegan Options', 'Gluten Free Options']",5,4.5,$$$$,771,"[['Wedding anniversary celebration', 'Highly recommend'], ['01/06/2018', '01/04/2018']]",/Restaurant_Review-g186605-d1146791-Reviews-Dax_Restaurant-Dublin_County_Dublin.html,d1146791,53.33939,-6.22182
125,0,Lemon and Duke,Dublin,"['Irish', 'European', 'Pub', 'Bar', 'Vegetarian Friendly', 'Vegan Options', 'Gluten Free Options']",6,4.5,$$ - $$$,232,"[['LEMON & DUKE YOU HAVE TO TRY IT!', 'Weekend in Ireland'], ['01/08/2018', '01/07/2018']]",/Restaurant_Review-g186605-d11727304-Reviews-Lemon_and_Duke-Dublin_County_Dublin.html,d11727304,53.34107,-6.25933
126,0,Cafe Restaurant Riba,Dublin,"['Irish', 'European', 'Wine Bar', 'Vegetarian Friendly', 'Gluten Free Options', 'Vegan Options']",7,4.5,$$ - $$$,326,"[['Good food and cosy', 'Always good'], ['01/05/2018', '01/02/2018']]",/Restaurant_Review-g186605-d5992693-Reviews-Cafe_Restaurant_Riba-Dublin_County_Dublin.html,d5992693,53.35279,-6.26152
127,0,Las Tapas de Lola,Dublin,"['Mediterranean', 'European', 'Spanish', 'Vegetarian Friendly', 'Vegan Options', 'Gluten Free Options']",8,4.5,$$ - $$$,832,"[['Delicious', 'Highly recommended.'], ['01/02/2018', '12/30/2017']]",/Restaurant_Review-g186605-d4234586-Reviews-Las_Tapas_de_Lola-Dublin_County_Dublin.html,d4234586,53.33696,-6.26562
128,0,Keshk Cafe,Dublin,"['Mediterranean', 'Middle Eastern', 'Egyptian', 'Vegetarian Friendly', 'Vegan Options', 'Halal', 'Gluten Free Options']",9,4.5,$$ - $$$,533,"[['Amazing!!!!', 'Good middle eastern food'], ['01/02/2018', '12/28/2017']]",/Restaurant_Review-g186605-d2480052-Reviews-Keshk_Cafe-Dublin_County_Dublin.html,d2480052,53.33385,-6.24581
129,0,Beanhive,Dublin,"['Irish', 'Cafe', 'European', 'Vegetarian Friendly', 'Vegan Options', 'Gluten Free Options']",10,4.5,$,692,"[['great coffee', 'Worth the wait'], ['01/06/2018', '01/06/2018']]",/Restaurant_Review-g186605-d6522141-Reviews-Beanhive-Dublin_County_Dublin.html,d6522141,53.33977,-6.25868
130,0,F.X. Buckley Steakhouse Temple Bar,Dublin,"['Steakhouse', 'Irish', 'European', 'Gluten Free Options']",11,4.5,$$ - $$$,2446,"[['Perfection!', 'Very nice place'], ['01/09/2018', '01/09/2018']]",/Restaurant_Review-g186605-d804494-Reviews-F_X_Buckley_Steakhouse_Temple_Bar-Dublin_County_Dublin.html,d804494,53.34458,-6.26379
131,0,Bleecker Street Cafe Bar,Dublin,"['Irish', 'Bar', 'Cafe', 'European', 'Pub', 'American', 'Vegetarian Friendly', 'Gluten Free Options']",12,4.5,$$ - $$$,461,"[['Such a fun place to eat', 'Great place ...'], ['12/17/2017', '12/11/2017']]",/Restaurant_Review-g186605-d2459692-Reviews-Bleecker_Street_Cafe_Bar-Dublin_County_Dublin.html,d2459692,53.35723,-6.2641
132,0,PHX Bistro,Dublin,"['Irish', 'European', 'Vegetarian Friendly', 'Vegan Options', 'Gluten Free Options']",13,4.5,$$ - $$$,585,"[['Great Dinner', 'Yum!'], ['01/07/2018', '01/07/2018']]",/Restaurant_Review-g186605-d3674448-Reviews-PHX_Bistro-Dublin_County_Dublin.html,d3674448,53.34678,-6.28158
133,0,I Monelli,Dublin,"['Italian', 'Mediterranean', 'European', 'Vegetarian Friendly', 'Vegan Options', 'Gluten Free Options']",14,4.5,$$ - $$$,418,"[['Best ""Real"" Italian food in Dublin', 'Exellent the best Italian Restaurant'], ['01/04/2018', '01/03/2018']]",/Restaurant_Review-g186605-d6542415-Reviews-I_Monelli-Dublin_County_Dublin.html,d6542415,53.31073,-6.28023
134,0,Darkey Kelly's Bar & Restaurant,Dublin,"['Irish', 'Bar', 'European', 'British', 'Pub', 'Vegetarian Friendly', 'Gluten Free Options']",15,4.5,$$ - $$$,814,"[['Great music', 'Superb'], ['01/03/2018', '01/03/2018']]",/Restaurant_Review-g186605-d6403998-Reviews-Darkey_Kelly_s_Bar_Restaurant-Dublin_County_Dublin.html,d6403998,53.34697,-6.25395
135,0,The Table,Edinburgh,"['European', 'British', 'Scottish']",1,5,$$$$,263,"[['Unforgettable', 'GROUP DINING EXPERIENCE DIFFICULT TO BEAT'], ['01/10/2018', '01/09/2018']]",/Restaurant_Review-g186525-d8479434-Reviews-The_Table-Edinburgh_Scotland.html,d8479434,55.95621,-3.1987
136,0,Forage & Chatter,Edinburgh,"['European', 'British', 'Scottish', 'Vegetarian Friendly', 'Vegan Options', 'Gluten Free Options']",2,5,$$ - $$$,772,"[['The pesto offered with the fresh dough bal...', 'Fabulous meal'], ['01/11/2018', '01/10/2018']]",/Restaurant_Review-g186525-d11722138-Reviews-Forage_Chatter-Edinburgh_Scotland.html,d11722138,55.95074,-3.2098
137,0,Aizle,Edinburgh,"['European', 'British', 'Scottish', 'International', 'Vegetarian Friendly', 'Gluten Free Options']",3,5,$$$$,642,"[['Beautiful Meal!', 'Is this my new favourite?'], ['01/06/2018', '01/05/2018']]",/Restaurant_Review-g186525-d6561056-Reviews-Aizle-Edinburgh_Scotland.html,d6561056,55.95149,-3.20636
138,0,Number One at The Balmoral,Edinburgh,"['European', 'British', 'Scottish', 'Vegetarian Friendly', 'Vegan Options', 'Gluten Free Options']",4,5,$$$$,1483,"[['A must if you are in Edinburgh!', 'Incredible experience'], ['01/08/2018', '01/06/2018']]",/Restaurant_Review-g186525-d720180-Reviews-Number_One_at_The_Balmoral-Edinburgh_Scotland.html,d720180,55.95317,-3.18993
139,0,Pickles,Edinburgh,"['Wine Bar', 'Scottish', 'Vegetarian Friendly']",5,5,$$ - $$$,810,"[['Wonderful', 'We saved the best until last'], ['01/11/2018', '01/10/2018']]",/Restaurant_Review-g186525-d4681770-Reviews-Pickles-Edinburgh_Scotland.html,d4681770,55.95889,-3.19035
140,0,Bia Bistrot,Edinburgh,"['French', 'European', 'British', 'Scottish', 'Vegetarian Friendly', 'Vegan Options', 'Gluten Free Options']",6,4.5,$$ - $$$,488,"[['Family Lunch', 'Totally excellent restaurant'], ['01/03/2018', '01/02/2018']]",/Restaurant_Review-g186525-d1928310-Reviews-Bia_Bistrot-Edinburgh_Scotland.html,d1928310,55.93377,-3.21118
141,0,Locanda De Gusti,Edinburgh,"['Italian', 'Seafood', 'Mediterranean', 'Vegetarian Friendly', 'Vegan Options', 'Gluten Free Options']",7,5,$$ - $$$,1169,"[['Incredible Italian Food', 'Lovely food'], ['01/08/2018', '01/07/2018']]",/Restaurant_Review-g186525-d1818786-Reviews-Locanda_De_Gusti-Edinburgh_Scotland.html,d1818786,55.94369,-3.21927
142,0,Purslane Restaurant,Edinburgh,"['French', 'British', 'Scottish', 'European', 'International', 'Vegetarian Friendly', 'Vegan Options', 'Gluten Free Options']",8,4.5,$$$$,772,"[['Hands down one of the best restaurants in...', 'Fantastic Experience'], ['01/08/2018', '01/08/2018']]",/Restaurant_Review-g186525-d2422576-Reviews-Purslane_Restaurant-Edinburgh_Scotland.html,d2422576,55.95786,-3.20667
143,0,Nok's Kitchen,Edinburgh,"['Asian', 'Thai', 'Vegetarian Friendly', 'Vegan Options', 'Gluten Free Options']",9,5,$$ - $$$,473,"[['Hidden gem!!!', 'Excellent thai in a lovely location'], ['01/10/2018', '01/08/2018']]",/Restaurant_Review-g186525-d10160758-Reviews-Nok_s_Kitchen-Edinburgh_Scotland.html,d10160758,55.94874,-3.19468
144,0,Colonnades at The Signet Library,Edinburgh,"['British', 'Scottish', 'Vegetarian Friendly', 'Gluten Free Options', 'Vegan Options']",10,5,$$$$,921,"[['New Years Afternoon tea', 'Afternoon Tea'], ['01/01/2018', '12/30/2017']]",/Restaurant_Review-g186525-d5575113-Reviews-Colonnades_at_The_Signet_Library-Edinburgh_Scotland.html,d5575113,55.94926,-3.19072
145,0,Pataka,Edinburgh,"['Indian', 'Asian', 'Balti', 'Bangladeshi', 'Vegetarian Friendly', 'Vegan Options', 'Halal', 'Gluten Free Options']",11,4.5,$$ - $$$,532,"[['Wonderful restaurant', 'Unusual Indian, but very nice'], ['01/07/2018', '01/07/2018']]",/Restaurant_Review-g186525-d720280-Reviews-Pataka-Edinburgh_Scotland.html,d720280,55.93574,-3.17982
146,0,Kezban Mediterranean Restaurant,Edinburgh,"['Mediterranean', 'European', 'Turkish', 'Middle Eastern', 'Vegetarian Friendly', 'Vegan Options', 'Halal', 'Gluten Free Options']",12,5,$$ - $$$,392,"[['Lovely wee meal', 'New year treat.'], ['01/12/2018', '01/06/2018']]",/Restaurant_Review-g186525-d10525753-Reviews-Kezban_Mediterranean_Restaurant-Edinburgh_Scotland.html,d10525753,55.97659,-3.17122
147,0,Roseleaf,Edinburgh,"['Bar', 'Fast Food', 'British', 'Pub', 'Scottish', 'Vegetarian Friendly', 'Vegan Options', 'Gluten Free Options']",13,4.5,$$ - $$$,903,"[['Lovely food and such lovely staff', 'The best macaroni cheese I‚Äôve ever had'], ['01/08/2018', '01/08/2018']]",/Restaurant_Review-g186525-d2018218-Reviews-Roseleaf-Edinburgh_Scotland.html,d2018218,55.97603,-3.17325
148,0,Castle Terrace Restaurant,Edinburgh,"['European', 'British', 'Scottish', 'Vegetarian Friendly', 'Vegan Options', 'Gluten Free Options']",14,4.5,$$$$,2297,"[['Excellent!', 'Definitely try.'], ['01/02/2018', '12/30/2017']]",/Restaurant_Review-g186525-d1830500-Reviews-Castle_Terrace_Restaurant-Edinburgh_Scotland.html,d1830500,55.94801,-3.20436
149,0,Navadhanya,Edinburgh,"['Indian', 'Asian', 'Vegetarian Friendly', 'Vegan Options', 'Gluten Free Options']",15,4.5,$$ - $$$,568,"[['Great service', 'Delicious Indian meal, recommended!'], ['01/06/2018', '01/06/2018']]",/Restaurant_Review-g186525-d9557814-Reviews-Navadhanya-Edinburgh_Scotland.html,d9557814,55.94689,-3.20485
150,0,Bayview,Geneva,"['French', 'European', 'Vegetarian Friendly', 'Vegan Options', 'Gluten Free Options']",1,4.5,$$$$,383,"[['Probably the top dining experience in Gene...', 'Amazing'], ['12/29/2017', '12/24/2017']]",/Restaurant_Review-g188057-d2437056-Reviews-Bayview-Geneva.html,d2437056,46.21433,6.15202
151,0,Izumi,Geneva,"['Japanese', 'Sushi', 'Asian', 'Vegetarian Friendly', 'Vegan Options', 'Gluten Free Options']",2,4.5,$$$$,509,"[['Anniversary supper', 'Excellent'], ['01/08/2018', '01/02/2018']]",/Restaurant_Review-g188057-d5049938-Reviews-Izumi-Geneva.html,d5049938,46.20679,6.14703
152,0,Bistrot du Boeuf Rouge,Geneva,"['French', 'European', 'Vegetarian Friendly', 'Gluten Free Options']",3,4.5,$$ - $$$,578,"[['Fine dining', 'nice atmosphere'], ['12/28/2017', '12/24/2017']]",/Restaurant_Review-g188057-d697832-Reviews-Bistrot_du_Boeuf_Rouge-Geneva.html,d697832,46.21019,6.14805
153,0,Le Chat-Botte,Geneva,"['French', 'European', 'Central European', 'Vegetarian Friendly', 'Vegan Options', 'Gluten Free Options']",4,4.5,$$$$,369,"[['Very good experience', 'Excellent'], ['11/25/2017', '11/06/2017']]",/Restaurant_Review-g188057-d697864-Reviews-Le_Chat_Botte-Geneva.html,d697864,46.20909,6.15013
154,0,Intensus,Geneva,"['French', 'European', 'Contemporary', 'Vegetarian Friendly']",5,5,$$$$,68,"[['Just amazing !', ""An amazing night you'll not forget""], ['10/29/2017', '10/08/2017']]",/Restaurant_Review-g188057-d12173937-Reviews-Intensus-Geneva.html,d12173937,46.20783,6.14146
155,0,Cafe du Soleil,Geneva,"['French', 'Swiss', 'European', 'Vegetarian Friendly', 'Gluten Free Options']",6,4.5,$$ - $$$,1222,"[['Excellent food but a bit small', 'The best Fondue in a friendly atmosphere'], ['01/08/2018', '01/05/2018']]",/Restaurant_Review-g188057-d751711-Reviews-Cafe_du_Soleil-Geneva.html,d751711,46.22305,6.12776
156,0,Inglewood,Geneva,"['American', 'Vegetarian Friendly']",7,4.5,$$ - $$$,251,"[['Definitely the best burger in town!', 'Serious burger!'], ['12/09/2017', '10/16/2017']]",/Restaurant_Review-g188057-d3707093-Reviews-Inglewood-Geneva.html,d3707093,46.20181,6.15704
157,0,Parfums de Beyrouth,Geneva,"['Lebanese', 'Fast Food', 'Mediterranean', 'Middle Eastern', 'Vegetarian Friendly', 'Vegan Options', 'Halal', 'Gluten Free Options']",8,4.5,$,752,"[['Excellent food, reasonably priced', 'Excellent choice'], ['01/07/2018', '01/06/2018']]",/Restaurant_Review-g188057-d2344392-Reviews-Parfums_de_Beyrouth-Geneva.html,d2344392,46.20999,6.14576
158,0,Bistro de la Tour,Geneva,"['French', 'European', 'Vegetarian Friendly', 'Vegan Options', 'Gluten Free Options']",9,4.5,$$ - $$$,284,"[['Perfect place!!', 'Friendly'], ['12/15/2017', '11/05/2017']]",/Restaurant_Review-g188057-d7171671-Reviews-Bistro_de_la_Tour-Geneva.html,d7171671,46.19595,6.14756
159,0,Il Lago at The Four Seasons Hotel,Geneva,"['Italian', 'Mediterranean', 'European', 'Contemporary', 'Vegetarian Friendly', 'Vegan Options', 'Gluten Free Options']",10,4.5,$$$$,353,"[['Memorable in More Ways than One', 'Loved Il Lago'], ['12/22/2017', '12/18/2017']]",/Restaurant_Review-g188057-d785019-Reviews-Il_Lago_at_The_Four_Seasons_Hotel-Geneva.html,d785019,46.20679,6.14703
160,0,Living Room Bar & Kitchen,Geneva,"['French', 'International', 'European', 'Fusion', 'Vegetarian Friendly', 'Vegan Options', 'Gluten Free Options']",11,4.5,$$ - $$$,103,"[['Wonderful lunch on Lake Geneva!', 'Very nice food , unusual setting , airy wi...'], ['01/05/2018', '11/13/2017']]",/Restaurant_Review-g188057-d12006452-Reviews-Living_Room_Bar_Kitchen-Geneva.html,d12006452,46.20778,6.14866
161,0,Fiskebar,Geneva,"['Seafood', 'Scandinavian', 'French', 'European', 'Vegetarian Friendly']",12,5,$$$$,54,"[['Wonderful dinner and experience', 'Extraordinary culinary execution'], ['12/23/2017', '12/09/2017']]",/Restaurant_Review-g188057-d12907952-Reviews-Fiskebar-Geneva.html,d12907952,46.20778,6.14866
162,0,Restaurant Edelweiss,Geneva,"['Swiss', 'European', 'Vegetarian Friendly', 'Gluten Free Options']",13,4,$$ - $$$,624,"[['Nice evening', 'Dinner'], ['01/02/2018', '12/29/2017']]",/Restaurant_Review-g188057-d1044937-Reviews-Restaurant_Edelweiss-Geneva.html,d1044937,46.21193,6.14465
163,0,Brasserie Lipp,Geneva,"['French', 'Seafood', 'European', 'Central European', 'Vegetarian Friendly', 'Vegan Options', 'Gluten Free Options']",14,4,$$ - $$$,1624,"[['Very good business dinner restaurant', 'Business dinner'], ['12/28/2017', '12/22/2017']]",/Restaurant_Review-g188057-d697836-Reviews-Brasserie_Lipp-Geneva.html,d697836,46.20359,6.14506
164,0,Spice of India,Geneva,"['Indian', 'Asian', 'Vegetarian Friendly', 'Vegan Options', 'Gluten Free Options']",15,4,$$ - $$$,325,"[['Nice food and friendly staff', 'Good but pricey'], ['01/10/2018', '12/30/2017']]",/Restaurant_Review-g188057-d1569940-Reviews-Spice_of_India-Geneva.html,d1569940,46.21246,6.14495
165,0,Restaurant Hala,Hamburg,"['Lebanese', 'Mediterranean', 'Middle Eastern', 'Vegetarian Friendly', 'Vegan Options', 'Halal', 'Gluten Free Options']",1,5,$$ - $$$,373,"[['Beautiful restaurant, excellent food & ser...', 'Absolutely fantastic'], ['12/29/2017', '12/24/2017']]",/Restaurant_Review-g187331-d3929905-Reviews-Restaurant_Hala-Hamburg.html,d3929905,53.55982,9.88789
166,0,Helo Restaurant,Hamburg,"['Steakhouse', 'Brazilian', 'South American', 'Latin', 'Mediterranean', 'Vegetarian Friendly', 'Vegan Options']",2,5,$$ - $$$,216,"[['Simplesmente delicioso', 'great restaurant in Hamburg'], ['10/06/2017', '08/13/2017']]",/Restaurant_Review-g187331-d4260468-Reviews-Helo_Restaurant-Hamburg.html,d4260468,53.58041,9.94752
167,0,Gassenhaur,Hamburg,"['German', 'Austrian', 'Diner', 'Wine Bar', 'Vegetarian Friendly']",3,5,$$ - $$$,160,"[['Great restaurant', 'Great food fab waiter !o'], ['01/07/2018', '12/27/2017']]",/Restaurant_Review-g187331-d12723004-Reviews-Gassenhaur-Hamburg.html,d12723004,53.55387,9.9157
168,0,Philipps Restaurant,Hamburg,"['International', 'French', 'German', 'European', 'Central European', 'Vegetarian Friendly', 'Vegan Options', 'Gluten Free Options']",4,5,$$ - $$$,496,"[['Birthday dinner', 'Highly recommended'], ['12/21/2017', '12/20/2017']]",/Restaurant_Review-g187331-d8028535-Reviews-Philipps_Restaurant-Hamburg.html,d8028535,53.55804,9.971
169,0,Estancia Steaks,Hamburg,"['Steakhouse', 'Barbecue', 'European', 'Argentinean', 'Gluten Free Options']",5,4.5,$$ - $$$,840,"[['Simply amazing place!', 'Best meat I have ever had'], ['01/04/2018', '12/29/2017']]",/Restaurant_Review-g187331-d1381897-Reviews-Estancia_Steaks-Hamburg.html,d1381897,53.54847,9.99563
170,0,Ashoka,Hamburg,"['Indian', 'Vegetarian Friendly', 'Vegan Options', 'Gluten Free Options']",6,4.5,$$ - $$$,312,"[['Lovely place, great food, friendly owners!', 'Excellent choice for vegans and vegetarian...'], ['01/09/2018', '12/28/2017']]",/Restaurant_Review-g187331-d1039139-Reviews-Ashoka-Hamburg.html,d1039139,53.55339,9.96559
171,0,Picasso,Hamburg,"['Seafood', 'Mediterranean', 'European', 'Spanish', 'Grill', 'Vegetarian Friendly', 'Vegan Options', 'Gluten Free Options']",7,4.5,$$ - $$$,564,"[['Excellent Spanish tapas in center of Hambu...', 'Friendly staff delicious food'], ['12/09/2017', '12/05/2017']]",/Restaurant_Review-g187331-d959195-Reviews-Picasso-Hamburg.html,d959195,53.54998,9.99565
172,0,Caramba Especial,Hamburg,"['Seafood', 'Mediterranean', 'European', 'Spanish', 'Portuguese', 'Vegetarian Friendly', 'Gluten Free Options']",8,4.5,$$ - $$$,764,"[['The best meal I had in Hamburg!', '""Mi cassa su cassa "" never a more true say...'], ['01/01/2018', '12/27/2017']]",/Restaurant_Review-g187331-d7171165-Reviews-Caramba_Especial-Hamburg.html,d7171165,53.54493,9.97624
173,0,Pizza Bande,Hamburg,"['Italian', 'Pizza', 'Mediterranean', 'European', 'Vegetarian Friendly', 'Vegan Options']",9,4.5,$,366,"[['Home made Pizza- delicious', 'cool pizza place'], ['01/11/2018', '01/10/2018']]",/Restaurant_Review-g187331-d7755288-Reviews-Pizza_Bande-Hamburg.html,d7755288,53.54892,9.95771
174,0,Theo's,Hamburg,"['American', 'Steakhouse']",10,4.5,$$$$,188,"[['New Years Eve', 'Evening meal with friends'], ['01/01/2018', '12/13/2017']]",/Restaurant_Review-g187331-d7817845-Reviews-Theo_s-Hamburg.html,d7817845,53.56345,9.98959
175,0,Liman Fisch -Restaurant,Hamburg,"['Seafood', 'Mediterranean', 'European', 'International', 'Gluten Free Options']",11,4.5,$$ - $$$,462,"[['Prawns and wine', 'Highly recommended!'], ['12/28/2017', '12/25/2017']]",/Restaurant_Review-g187331-d4356004-Reviews-Liman_Fisch_Restaurant-Hamburg.html,d4356004,53.58083,10.01212
176,0,Karo Fisch Restaurant,Hamburg,"['Seafood', 'Mediterranean', 'European', 'Gluten Free Options']",12,4.5,$,467,"[['Friendly fish üëåüèª', 'Most delicious fresh fish in casual surrou...'], ['12/29/2017', '12/22/2017']]",/Restaurant_Review-g187331-d5501102-Reviews-Karo_Fisch_Restaurant-Hamburg.html,d5501102,53.46073,9.98002
177,0,The Table Kevin Fehling,Hamburg,"['European', 'Vegetarian Friendly']",13,5,$$$$,120,"[['Elaborate dishes, a plethora of tastes', '(Almost) perfect'], ['10/29/2017', '10/09/2017']]",/Restaurant_Review-g187331-d8561371-Reviews-The_Table_Kevin_Fehling-Hamburg.html,d8561371,53.54255,10.00282
178,0,Bruecke 10,Hamburg,"['German', 'Seafood', 'Fast Food']",14,4.5,$,779,"[['If you want fischbr√∂tchen, go here.', 'Foodie'], ['12/30/2017', '12/28/2017']]",/Restaurant_Review-g187331-d2194991-Reviews-Bruecke_10-Hamburg.html,d2194991,53.54503,9.89238
179,0,[m]eatery bar + restaurant,Hamburg,"['Steakhouse', 'Barbecue', 'European', 'Central European', 'Vegetarian Friendly', 'Gluten Free Options']",15,4.5,$$$$,809,"[['Meatlover', 'Not quite as good as last time'], ['01/08/2018', '12/16/2017']]",/Restaurant_Review-g187331-d1007683-Reviews-M_eatery_bar_restaurant-Hamburg.html,d1007683,53.55654,9.9866
180,0,Finnjavel,Helsinki,"['European', 'Scandinavian', 'Vegetarian Friendly', 'Gluten Free Options']",1,4.5,$$$$,305,"[['Fantastic Taste of Finland', 'Modern Finnish Cuisine....super service'], ['01/06/2018', '01/02/2018']]",/Restaurant_Review-g189934-d10179471-Reviews-Finnjavel-Helsinki_Uusimaa.html,d10179471,60.17191,24.93167
181,0,Olo Ravintola,Helsinki,"['Contemporary', 'Scandinavian', 'Vegetarian Friendly', 'Gluten Free Options', 'Vegan Options']",2,4.5,$$$$,615,"[['An evening to remember', 'Best dinner we ever had!'], ['01/08/2018', '01/08/2018']]",/Restaurant_Review-g189934-d784038-Reviews-Olo_Ravintola-Helsinki_Uusimaa.html,d784038,60.16797,24.95501
182,0,Restaurant Muru,Helsinki,"['European', 'Central European', 'Vegetarian Friendly', 'Gluten Free Options']",3,4.5,$$$$,449,"[['Good service and food', 'Superb menu'], ['12/26/2017', '12/22/2017']]",/Restaurant_Review-g189934-d2201057-Reviews-Restaurant_Muru-Helsinki_Uusimaa.html,d2201057,60.16512,24.936
183,0,Ragu,Helsinki,"['European', 'Central European', 'Scandinavian', 'Vegetarian Friendly', 'Vegan Options', 'Gluten Free Options']",4,4.5,$$$$,685,"[['Excellent, enjoyable evening', 'Delicious'], ['01/07/2018', '01/04/2018']]",/Restaurant_Review-g189934-d6591387-Reviews-Ragu-Helsinki_Uusimaa.html,d6591387,60.16578,24.94484
184,0,Ravintola Kuu,Helsinki,"['European', 'Scandinavian', 'Vegetarian Friendly', 'Vegan Options', 'Gluten Free Options']",5,4.5,$$ - $$$,703,"[['Delicious Salmon Soup', 'Best Meal of our holiday!'], ['01/03/2018', '01/02/2018']]",/Restaurant_Review-g189934-d1012790-Reviews-Ravintola_Kuu-Helsinki_Uusimaa.html,d1012790,60.18018,24.92484
185,0,Passio restaurant,Helsinki,"['European', 'Scandinavian', 'Vegetarian Friendly', 'Vegan Options', 'Gluten Free Options']",6,4.5,$$$$,556,"[['Excellent food & relaxed atmosphere', 'Best restaurant this trip'], ['01/09/2018', '12/31/2017']]",/Restaurant_Review-g189934-d6507867-Reviews-Passio_restaurant-Helsinki_Uusimaa.html,d6507867,11.13572,122.64851
186,0,Nokka,Helsinki,"['European', 'Scandinavian', 'Vegetarian Friendly', 'Vegan Options', 'Gluten Free Options']",7,4.5,$$$$,378,"[['Orgasmic food', 'Special 100 years dinner'], ['12/17/2017', '12/08/2017']]",/Restaurant_Review-g189934-d779693-Reviews-Nokka-Helsinki_Uusimaa.html,d779693,60.16909,24.95992
187,0,Konstan Molja,Helsinki,"['Vegetarian Friendly', 'Gluten Free Options']",8,4.5,$$ - $$$,767,"[['Little Gem', 'Authentic Finnish Cuisine'], ['11/16/2017', '11/09/2017']]",/Restaurant_Review-g189934-d1064110-Reviews-Konstan_Molja-Helsinki_Uusimaa.html,d1064110,60.16404,24.92691
188,0,Juuri,Helsinki,"['European', 'Scandinavian', 'Vegetarian Friendly', 'Vegan Options', 'Gluten Free Options']",9,4.5,$$$$,929,"[['Great Finnish dinner', 'Sapas rock!'], ['01/09/2018', '01/03/2018']]",/Restaurant_Review-g189934-d781542-Reviews-Juuri-Helsinki_Uusimaa.html,d781542,60.16388,24.94617
189,0,Aino,Helsinki,"['European', 'Scandinavian', 'Vegetarian Friendly', 'Gluten Free Options']",10,4,$$ - $$$,527,"[['Highly enjoyable', 'Menu Aino consumed'], ['01/02/2018', '12/29/2017']]",/Restaurant_Review-g189934-d805367-Reviews-Aino-Helsinki_Uusimaa.html,d805367,60.16786,24.95025
190,0,Restaurant Lappi,Helsinki,"['European', 'Scandinavian', 'Gluten Free Options']",11,4,$$ - $$$,994,"[['Excellent Representation of Traditional La...', 'Interesting experience'], ['01/02/2018', '12/27/2017']]",/Restaurant_Review-g189934-d779830-Reviews-Restaurant_Lappi-Helsinki_Uusimaa.html,d779830,55.70796,12.59782
191,0,Cafe Bar No 9,Helsinki,"['Bar', 'Cafe', 'European', 'Vegetarian Friendly', 'Vegan Options', 'Gluten Free Options']",12,4,$,502,"[['Great place in central Helsinki for qualit...', 'Relaxed bar atmosphere'], ['01/07/2018', '12/30/2017']]",/Restaurant_Review-g189934-d784289-Reviews-Cafe_Bar_No_9-Helsinki_Uusimaa.html,d784289,60.1649,24.94198
192,0,Restaurant Savoy,Helsinki,"['French', 'Scandinavian', 'Vegetarian Friendly', 'Vegan Options', 'Gluten Free Options']",13,4.5,$$$$,351,"[['Excellent food but the place is outdated...', 'Best in Helsinki!'], ['12/30/2017', '12/27/2017']]",/Restaurant_Review-g189934-d801888-Reviews-Restaurant_Savoy-Helsinki_Uusimaa.html,d801888,60.16902,24.95282
193,0,Farang,Helsinki,"['Asian', 'Thai', 'Vietnamese', 'Fusion', 'Vegetarian Friendly', 'Vegan Options', 'Gluten Free Options']",14,4.5,$$$$,568,"[['Best restaurant in Helsinki', 'A vegan tasting menu for two'], ['01/06/2018', '01/03/2018']]",/Restaurant_Review-g189934-d1650581-Reviews-Farang-Helsinki_Uusimaa.html,d1650581,60.17116,24.934
194,0,Kappeli,Helsinki,"['Cafe', 'European', 'Soups', 'Scandinavian', 'Vegetarian Friendly', 'Vegan Options', 'Gluten Free Options']",15,4,$$ - $$$,1488,"[['Pretty restaurant and cafeteria', 'Good food but not the friendliest of servi...'], ['01/09/2018', '01/08/2018']]",/Restaurant_Review-g189934-d850178-Reviews-Kappeli-Helsinki_Uusimaa.html,d850178,60.16725,24.95026
195,0,Gossip Cafe,Krakow,"['Polish', 'Cafe', 'European', 'Vegetarian Friendly', 'Vegan Options', 'Gluten Free Options']",1,5,$$ - $$$,171,"[['Delicious breakfast', 'Very good'], ['01/08/2018', '01/03/2018']]",/Restaurant_Review-g274772-d10086671-Reviews-Gossip_Cafe-Krakow_Lesser_Poland_Province_Southern_Poland.html,d10086671,50.05842,19.93242
196,0,Old Town Restaurant Wine & Bar,Krakow,"['European', 'Polish', 'Eastern European', 'Central European', 'Vegetarian Friendly', 'Gluten Free Options']",2,4.5,$$ - $$$,1092,"[['Brilliant food', 'Recommend!'], ['01/10/2018', '01/09/2018']]",/Restaurant_Review-g274772-d8412137-Reviews-Old_Town_Restaurant_Wine_Bar-Krakow_Lesser_Poland_Province_Southern_Poland.html,d8412137,50.05426,19.94555
197,0,Vegab,Krakow,"['Diner', 'Fast Food', 'Healthy', 'Vegetarian Friendly', 'Vegan Options']",3,4.5,$,555,"[['Coming back to Krakow just for a Kebab her...', 'Best Vegan food'], ['01/03/2018', '01/03/2018']]",/Restaurant_Review-g274772-d8868480-Reviews-Vegab-Krakow_Lesser_Poland_Province_Southern_Poland.html,d8868480,50.05832,19.94343
198,0,Nago Sushi & Sake,Krakow,"['Japanese', 'Sushi', 'Asian', 'Fusion', 'Vegetarian Friendly', 'Vegan Options', 'Gluten Free Options']",4,4.5,$$$$,329,"[['Brilliant Sushi', 'Great atmosphere'], ['01/10/2018', '01/03/2018']]",/Restaurant_Review-g274772-d11812564-Reviews-Nago_Sushi_Sake-Krakow_Lesser_Poland_Province_Southern_Poland.html,d11812564,50.04871,19.94239
199,0,Restauracja Starka,Krakow,"['Polish', 'Eastern European', 'Central European', 'Vegetarian Friendly', 'Vegan Options', 'Gluten Free Options']",5,4.5,$$ - $$$,4483,"[['Fantastic!', 'We r definitely going back'], ['01/09/2018', '01/09/2018']]",/Restaurant_Review-g274772-d1749958-Reviews-Restauracja_Starka-Krakow_Lesser_Poland_Province_Southern_Poland.html,d1749958,50.0506,19.94431
200,0,Przystanek Pierogarnia,Krakow,"['Polish', 'European', 'Eastern European', 'Central European', 'Vegetarian Friendly', 'Vegan Options']",6,4.5,$,592,"[['Classic affordable Polish Food', 'Pyszota'], ['01/10/2018', '01/05/2018']]",/Restaurant_Review-g274772-d3172567-Reviews-Przystanek_Pierogarnia-Krakow_Lesser_Poland_Province_Southern_Poland.html,d3172567,50.05912,19.94712
201,0,Dobry Kumpel Pub,Krakow,['Pub'],7,4.5,$$ - $$$,202,"[['Fabulous bar, Great atmosphere', 'New Year celebration'], ['01/06/2018', '01/03/2018']]",/Restaurant_Review-g274772-d5506810-Reviews-Dobry_Kumpel_Pub-Krakow_Lesser_Poland_Province_Southern_Poland.html,d5506810,50.0642,19.94085
202,0,Trezo Restauracja,Krakow,"['Polish', 'Eastern European', 'Central European', 'Vegetarian Friendly', 'Gluten Free Options']",8,4.5,$$ - $$$,2081,"[['A glimpse of past days', 'Great service and excellent food'], ['12/29/2017', '12/29/2017']]",/Restaurant_Review-g274772-d3222026-Reviews-Trezo_Restauracja-Krakow_Lesser_Poland_Province_Southern_Poland.html,d3222026,50.06368,19.93755
203,0,Zielona Kuchnia,Krakow,"['Contemporary', 'Fusion', 'Healthy', 'Polish', 'European', 'Vegetarian Friendly', 'Vegan Options', 'Gluten Free Options']",9,4.5,$$ - $$$,1044,"[['Our favourite restaurant in Krakow, possib...', 'Superb'], ['01/09/2018', '12/31/2017']]",/Restaurant_Review-g274772-d1965370-Reviews-Zielona_Kuchnia-Krakow_Lesser_Poland_Province_Southern_Poland.html,d1965370,50.06701,19.92758
204,0,Bianca,Krakow,"['Italian', 'European', 'Vegetarian Friendly', 'Vegan Options', 'Gluten Free Options']",10,4.5,$$ - $$$,1350,"[['Last dinner in Krakow', 'Perfect Italian in Krakow'], ['01/09/2018', '01/06/2018']]",/Restaurant_Review-g274772-d6782602-Reviews-Bianca-Krakow_Lesser_Poland_Province_Southern_Poland.html,d6782602,50.06186,19.93975
205,0,Youmiko Sushi,Krakow,"['Japanese', 'Seafood', 'Sushi', 'Asian', 'Vegetarian Friendly', 'Vegan Options', 'Gluten Free Options']",11,4.5,$$ - $$$,544,"[['Love! Meat/fish eaters try the vegan optio...', 'Favorite spot in Krakow'], ['12/23/2017', '12/15/2017']]",/Restaurant_Review-g274772-d8813838-Reviews-Youmiko_Sushi-Krakow_Lesser_Poland_Province_Southern_Poland.html,d8813838,50.05034,19.9431
206,0,Taste of India,Krakow,"['Indian', 'Asian', 'Vegetarian Friendly', 'Vegan Options', 'Gluten Free Options']",12,4.5,$$ - $$$,378,"[['Great food', 'Delicious Indian'], ['01/10/2018', '01/06/2018']]",/Restaurant_Review-g274772-d11756832-Reviews-Taste_of_India-Krakow_Lesser_Poland_Province_Southern_Poland.html,d11756832,50.05261,19.94209
207,0,Albertina Restaurant & Wine,Krakow,"['Mediterranean', 'Polish', 'International', 'European', 'Vegetarian Friendly', 'Vegan Options', 'Gluten Free Options']",13,4.5,$$$$,321,"[['Something to tell your kids even when you...', 'Excellent'], ['12/28/2017', '12/20/2017']]",/Restaurant_Review-g274772-d9739296-Reviews-Albertina_Restaurant_Wine-Krakow_Lesser_Poland_Province_Southern_Poland.html,d9739296,50.06351,19.93177
208,0,Sissi Restaurant & Wine,Krakow,"['Italian', 'Polish', 'Healthy', 'Wine Bar', 'Vegetarian Friendly', 'Vegan Options', 'Gluten Free Options']",14,4.5,$$ - $$$,623,"[['Lovely food!', 'Amazing food, warmly welcoming staff!'], ['01/05/2018', '01/01/2018']]",/Restaurant_Review-g274772-d8141152-Reviews-Sissi_Restaurant_Wine-Krakow_Lesser_Poland_Province_Southern_Poland.html,d8141152,50.06351,19.93177
209,0,Introligatornia Smaku,Krakow,"['Polish', 'International', 'European', 'Vegetarian Friendly', 'Vegan Options', 'Gluten Free Options']",15,4.5,$$ - $$$,1806,"[['Fantastic restaurant!', 'Incredible food/drinks & top-notch service...'], ['01/10/2018', '01/03/2018']]",/Restaurant_Review-g274772-d5582351-Reviews-Introligatornia_Smaku-Krakow_Lesser_Poland_Province_Southern_Poland.html,d5582351,50.05071,19.94481
210,0,Estamine Art Food Drink,Lisbon,"['Bar', 'Pub', 'Healthy', 'Brazilian', 'Vegetarian Friendly', 'Vegan Options', 'Gluten Free Options']",1,5,$,327,"[['Fabulous food and people - book in advance...', 'Best mojitos in Lisbon!'], ['02/24/2018', '02/17/2018']]",/Restaurant_Review-g189158-d8574693-Reviews-Estamine_Art_Food_Drink-Lisbon_Lisbon_District_Central_Portugal.html,d8574693,38.71855,-9.13183
211,0,BA Wine Bar do Bairro Alto,Lisbon,"['Portuguese', 'Wine Bar', 'Gluten Free Options']",2,4.5,$$ - $$$,1526,"[['This place should be required for all trav...', 'A journey through Portuguese wines in a co...'], ['02/22/2018', '02/22/2018']]",/Restaurant_Review-g189158-d2719569-Reviews-BA_Wine_Bar_do_Bairro_Alto-Lisbon_Lisbon_District_Central_Portugal.html,d2719569,38.71251,-9.14534
212,0,La Buvette da Mae d'Agua,Lisbon,"['French', 'Mediterranean', 'Healthy', 'Portuguese', 'European', 'Vegetarian Friendly', 'Vegan Options', 'Gluten Free Options']",3,5,$$ - $$$,177,"[['A little gem in Lisbon', 'Unexpected gastronomic experience'], ['02/24/2018', '02/21/2018']]",/Restaurant_Review-g189158-d12351853-Reviews-La_Buvette_da_Mae_d_Agua-Lisbon_Lisbon_District_Central_Portugal.html,d12351853,38.70224,-9.43294
213,0,Ha Tapas no Mercado!!!,Lisbon,"['European', 'Portuguese', 'Soups', 'Mediterranean', 'Vegetarian Friendly', 'Vegan Options']",4,5,$,423,"[['Lunch', 'Great meal, fantastic value!'], ['02/19/2018', '02/17/2018']]",/Restaurant_Review-g189158-d8626284-Reviews-Ha_Tapas_no_Mercado-Lisbon_Lisbon_District_Central_Portugal.html,d8626284,38.73485,-9.1325
214,0,O Vinhaca Tapas & Vinhos,Lisbon,"['Seafood', 'Mediterranean', 'European', 'Portuguese', 'Wine Bar', 'Vegetarian Friendly']",5,5,$$ - $$$,235,"[['What an outstanding evening', 'Paolo makes this a wonderful experience'], ['02/15/2018', '02/03/2018']]",/Restaurant_Review-g189158-d8317381-Reviews-O_Vinhaca_Tapas_Vinhos-Lisbon_Lisbon_District_Central_Portugal.html,d8317381,38.7135,-9.13033
215,0,Restaurante Mili,Lisbon,"['Indian', 'Mediterranean', 'Portuguese', 'Vegetarian Friendly', 'Vegan Options', 'Gluten Free Options']",6,4.5,$,813,"[['Amazing Lunch', 'Friendly Staff & Good Food'], ['02/26/2018', '02/25/2018']]",/Restaurant_Review-g189158-d9976581-Reviews-Restaurante_Mili-Lisbon_Lisbon_District_Central_Portugal.html,d9976581,38.71578,-9.13843
216,0,Leo,Lisbon,"['Indian', 'Asian', 'Nepali', 'Vegetarian Friendly', 'Vegan Options', 'Gluten Free Options']",7,4.5,$$ - $$$,363,"[['Good food', 'Simply an excellent'], ['02/23/2018', '02/22/2018']]",/Restaurant_Review-g189158-d10583082-Reviews-Leo-Lisbon_Lisbon_District_Central_Portugal.html,d10583082,38.72633,-9.14951
217,0,Augusto Lisboa,Lisbon,"['European', 'Portuguese', 'French', 'Wine Bar', 'Vegetarian Friendly', 'Vegan Options']",8,4.5,$$ - $$$,706,"[['Perfect place', 'Great Place!'], ['02/03/2018', '01/22/2018']]",/Restaurant_Review-g189158-d4955432-Reviews-Augusto_Lisboa-Lisbon_Lisbon_District_Central_Portugal.html,d4955432,38.71012,-9.13241
218,0,Crisfama,Lisbon,"['Mediterranean', 'European', 'Portuguese', 'Gluten Free Options']",9,4.5,$,795,"[['Excellent Meal', 'Amazing'], ['02/17/2018', '02/15/2018']]",/Restaurant_Review-g189158-d4890768-Reviews-Crisfama-Lisbon_Lisbon_District_Central_Portugal.html,d4890768,38.71743,-9.12071
219,0,A Venda Lusitana,Lisbon,"['Mediterranean', 'Portuguese', 'Wine Bar', 'Vegetarian Friendly', 'Gluten Free Options']",10,4.5,$$ - $$$,548,"[['Delicious Tasting Menu and Lovely Host', 'Memorable meal in Lisbon'], ['02/25/2018', '02/16/2018']]",/Restaurant_Review-g189158-d8074564-Reviews-A_Venda_Lusitana-Lisbon_Lisbon_District_Central_Portugal.html,d8074564,38.74606,-9.09981
220,0,Casa Nepalesa,Lisbon,"['Indian', 'Asian', 'Nepali', 'Vegetarian Friendly', 'Vegan Options', 'Gluten Free Options']",11,4.5,$$ - $$$,1140,"[['Excellent food', 'Wow ! I love it'], ['02/25/2018', '02/23/2018']]",/Restaurant_Review-g189158-d2615468-Reviews-Casa_Nepalesa-Lisbon_Lisbon_District_Central_Portugal.html,d2615468,38.73848,-9.15154
221,0,Sanskar Nepal,Lisbon,"['Indian', 'Vegetarian Friendly', 'Vegan Options', 'Gluten Free Options']",12,4.5,$,296,"[['Delicious', 'Lovely place and accommodating staff'], ['02/25/2018', '02/24/2018']]",/Restaurant_Review-g189158-d10392868-Reviews-Sanskar_Nepal-Lisbon_Lisbon_District_Central_Portugal.html,d10392868,38.71028,-9.14529
222,0,Come Prima Restaurante Italiano,Lisbon,"['Italian', 'Pizza', 'Mediterranean', 'European', 'Vegetarian Friendly', 'Vegan Options', 'Gluten Free Options']",13,4.5,$$ - $$$,1721,"[['Amazing food and service :)', 'delicious!'], ['02/25/2018', '02/25/2018']]",/Restaurant_Review-g189158-d1721696-Reviews-Come_Prima_Restaurante_Italiano-Lisbon_Lisbon_District_Central_Portugal.html,d1721696,38.70483,-9.16636
223,0,Salsa Rosa Bistro,Lisbon,"['Contemporary', 'Brazilian', 'Mediterranean', 'Portuguese', 'Vegetarian Friendly', 'Vegan Options', 'Gluten Free Options']",14,4.5,$$ - $$$,948,"[['Wow', 'Great night with friends'], ['02/17/2018', '02/16/2018']]",/Restaurant_Review-g189158-d7285428-Reviews-Salsa_Rosa_Bistro-Lisbon_Lisbon_District_Central_Portugal.html,d7285428,38.73768,-9.15013
224,0,Lisboete Restaurante,Lisbon,"['Mediterranean', 'European', 'Portuguese', 'Vegetarian Friendly']",15,4.5,$$$$,418,"[['Excellent!', 'Very enjoyable tasting menu'], ['02/17/2018', '02/17/2018']]",/Restaurant_Review-g189158-d6997204-Reviews-Lisboete_Restaurante-Lisbon_Lisbon_District_Central_Portugal.html,d6997204,38.71203,-9.13866
225,0,Monstera bistro,Ljubljana,"['European', 'Contemporary', 'Slovenian', 'Central European', 'Vegetarian Friendly', 'Vegan Options', 'Gluten Free Options']",1,4.5,$$ - $$$,303,"[['high expectations fully met', 'Fine bistro'], ['01/07/2018', '01/06/2018']]",/Restaurant_Review-g274873-d10460965-Reviews-Monstera_bistro-Ljubljana_Upper_Carniola_Region.html,d10460965,46.04838,14.50438
226,0,Restavracija Strelec,Ljubljana,"['European', 'Slovenian', 'Central European', 'Contemporary', 'Vegetarian Friendly', 'Gluten Free Options', 'Vegan Options']",2,4.5,$$$$,480,"[['Five star restaurant', 'Superb!'], ['01/06/2018', '01/05/2018']]",/Restaurant_Review-g274873-d3812696-Reviews-Restavracija_Strelec-Ljubljana_Upper_Carniola_Region.html,d3812696,46.04846,14.50936
227,0,Luda,Ljubljana,"['Contemporary', 'Slovenian', 'Vegan Options', 'Gluten Free Options']",3,4.5,$$ - $$$,384,"[['Birthday Meal', 'Great!'], ['12/19/2017', '12/04/2017']]",/Restaurant_Review-g274873-d7202050-Reviews-Luda-Ljubljana_Upper_Carniola_Region.html,d7202050,46.05053,14.51276
228,0,Odprta Kuhna,Ljubljana,"['Japanese', 'Fast Food', 'Mediterranean', 'Barbecue', 'European', 'Middle Eastern', 'Slovenian', 'Central European', 'Vegetarian Friendly', 'Vegan Options', 'Gluten Free Options']",4,4.5,$,194,"[['A very special event!', 'Great ambiance, great food, great people'], ['11/20/2017', '11/13/2017']]",/Restaurant_Review-g274873-d8262021-Reviews-Odprta_Kuhna-Ljubljana_Upper_Carniola_Region.html,d8262021,46.05095,14.5075
229,0,Valvasor,Ljubljana,"['Mediterranean', 'European', 'Slovenian', 'Central European', 'Vegetarian Friendly', 'Vegan Options', 'Gluten Free Options']",5,4.5,$$$$,911,"[['High expectations fully met', 'superb'], ['01/03/2018', '01/03/2018']]",/Restaurant_Review-g274873-d1212202-Reviews-Valvasor-Ljubljana_Upper_Carniola_Region.html,d1212202,46.04802,14.50621
230,0,Pri Skofu,Ljubljana,"['European', 'Slovenian', 'Central European', 'Vegetarian Friendly', 'Gluten Free Options']",6,4.5,$$ - $$$,360,"[['Great dinner in a lovely restaurant', 'Great, Intimate, Welcoming Restaurant'], ['01/07/2018', '01/05/2018']]",/Restaurant_Review-g274873-d698780-Reviews-Pri_Skofu-Ljubljana_Upper_Carniola_Region.html,d698780,46.04406,14.50433
231,0,Pop's Place,Ljubljana,"['American', 'Barbecue', 'Gastropub', 'Vegetarian Friendly']",7,4.5,$$ - $$$,1387,"[['Sleep over in Ljubljana', 'Love this place!!'], ['01/09/2018', '01/09/2018']]",/Restaurant_Review-g274873-d8403821-Reviews-Pop_s_Place-Ljubljana_Upper_Carniola_Region.html,d8403821,46.05051,14.50593
232,0,Julija,Ljubljana,"['Italian', 'Mediterranean', 'European', 'Slovenian', 'Eastern European', 'Central European', 'Vegetarian Friendly', 'Vegan Options', 'Gluten Free Options']",8,4.5,$$ - $$$,2533,"[['great food , desent prices', 'Wonderful food, friendly staff'], ['01/08/2018', '01/07/2018']]",/Restaurant_Review-g274873-d697387-Reviews-Julija-Ljubljana_Upper_Carniola_Region.html,d697387,46.04792,14.50622
233,0,Robba,Ljubljana,"['European', 'Central European', 'Vegetarian Friendly', 'Vegan Options', 'Gluten Free Options']",9,4.5,$$ - $$$,816,"[['Casual chic restaurant!', 'Good but a little over confident'], ['01/07/2018', '01/05/2018']]",/Restaurant_Review-g274873-d8124300-Reviews-Robba-Ljubljana_Upper_Carniola_Region.html,d8124300,46.04959,14.50655
234,0,Hisa Pod Gradom restaurant,Ljubljana,"['Mediterranean', 'European', 'Slovenian', 'Eastern European', 'Central European', 'Vegetarian Friendly', 'Vegan Options', 'Gluten Free Options']",10,4.5,$$ - $$$,521,"[['Amazing dinner', 'Great staff & very good meal'], ['01/07/2018', '01/06/2018']]",/Restaurant_Review-g274873-d5508614-Reviews-Hisa_Pod_Gradom_restaurant-Ljubljana_Upper_Carniola_Region.html,d5508614,46.0495,14.51138
235,0,Klobasarna,Ljubljana,"['Fast Food', 'European', 'Slovenian', 'Eastern European', 'Central European']",11,4.5,$,475,"[['Quick Bite', 'Yum!'], ['01/03/2018', '01/01/2018']]",/Restaurant_Review-g274873-d4497616-Reviews-Klobasarna-Ljubljana_Upper_Carniola_Region.html,d4497616,46.05046,14.50784
236,0,Le Petit cafe,Ljubljana,"['French', 'Cafe', 'European', 'Vegetarian Friendly', 'Vegan Options', 'Gluten Free Options']",12,4.5,$$ - $$$,600,"[['perfect breakfast', 'Not to be missed!'], ['12/22/2017', '12/22/2017']]",/Restaurant_Review-g274873-d1088537-Reviews-Le_Petit_cafe-Ljubljana_Upper_Carniola_Region.html,d1088537,46.04719,14.50282
237,0,Kralj Zara,Ljubljana,"['American', 'Steakhouse', 'Barbecue', 'European', 'Grill', 'Gluten Free Options']",13,4.5,$$ - $$$,509,"[['Best in town!', 'Very good expirience for my soul'], ['01/05/2018', '01/04/2018']]",/Restaurant_Review-g274873-d8558137-Reviews-Kralj_Zara-Ljubljana_Upper_Carniola_Region.html,d8558137,46.07816,14.49671
238,0,Fari's Delice,Ljubljana,"['Fast Food', 'Middle Eastern', 'Persian', 'Vegetarian Friendly', 'Vegan Options', 'Halal', 'Gluten Free Options']",14,5,$,147,"[['Perfect for the love-birds!', 'The chicken file left me speechless'], ['01/02/2018', '12/11/2017']]",/Restaurant_Review-g274873-d8763649-Reviews-Fari_s_Delice-Ljubljana_Upper_Carniola_Region.html,d8763649,46.05678,14.5082
239,0,Most,Ljubljana,"['Mediterranean', 'Eastern European', 'European', 'Slovenian', 'Central European', 'Vegetarian Friendly', 'Vegan Options', 'Gluten Free Options']",15,4.5,$$ - $$$,756,"[['Very good', 'Lovely place, good food'], ['01/07/2018', '01/03/2018']]",/Restaurant_Review-g274873-d1898358-Reviews-Most-Ljubljana_Upper_Carniola_Region.html,d1898358,46.04554,14.61138
240,0,R & H cafe gallery,London,"['Cafe', 'Middle Eastern', 'Persian', 'Vegetarian Friendly', 'Vegan Options', 'Gluten Free Options']",1,5,$$ - $$$,146,"[['Amazing cakes', 'Breakfatst'], ['01/08/2018', '01/03/2018']]",/Restaurant_Review-g186338-d10517849-Reviews-R_H_cafe_gallery-London_England.html,d10517849,51.49481,-0.05334
241,0,Osteria Romana,London,"['Italian', 'Mediterranean', 'Vegetarian Friendly']",2,5,$$$$,112,"[['Small restaurant with the touch of Italian...', 'One of the best'], ['01/07/2018', '01/07/2018']]",/Restaurant_Review-g186338-d13149344-Reviews-Osteria_Romana-London_England.html,d13149344,51.5017,-0.16261
242,0,The Oystermen Seafood Bar & Kitchen,London,"['Seafood', 'British', 'Gluten Free Options']",3,5,$$ - $$$,255,"[['Fantasic!!', 'Superb Food, Warm and Welcoming Hospitalit...'], ['01/08/2018', '01/07/2018']]",/Restaurant_Review-g186338-d12518072-Reviews-The_Oystermen_Seafood_Bar_Kitchen-London_England.html,d12518072,51.53008,0.02321
243,0,Liman Restaurant,London,"['Mediterranean', 'European', 'Turkish', 'Middle Eastern', 'Vegetarian Friendly', 'Vegan Options', 'Halal', 'Gluten Free Options']",4,5,$$ - $$$,945,"[['A good experience', 'Excellent Establishment - Kunefe was Quite...'], ['01/07/2018', '12/31/2017']]",/Restaurant_Review-g186338-d10444968-Reviews-Liman_Restaurant-London_England.html,d10444968,51.5335,-0.11149
244,0,Holy Smoke,London,"['International', 'Vegetarian Friendly', 'Gluten Free Options', 'Vegan Options']",5,5,$$ - $$$,433,"[['Always consistently good food and service', 'Excellent food and drink with personal ser...'], ['12/22/2017', '12/18/2017']]",/Restaurant_Review-g186338-d7697088-Reviews-Holy_Smoke-London_England.html,d7697088,51.52082,-0.10969
245,0,The Ledbury,London,"['French', 'European', 'British', 'Vegetarian Friendly', 'Vegan Options', 'Gluten Free Options']",6,4.5,$$$$,2535,"[['Decades New, A Sublime Evening to Cherish', 'Flawless'], ['01/07/2018', '01/06/2018']]",/Restaurant_Review-g186338-d720761-Reviews-The_Ledbury-London_England.html,d720761,51.51516,-0.19936
246,0,The Clink Restaurant,London,"['European', 'British', 'Contemporary', 'Vegetarian Friendly', 'Vegan Options', 'Gluten Free Options']",7,5,$$ - $$$,588,"[['Weird but such a good experience!', 'Fantastic food and such a great project'], ['12/26/2017', '12/20/2017']]",/Restaurant_Review-g186338-d6635485-Reviews-The_Clink_Restaurant-London_England.html,d6635485,51.45217,-0.12539
247,0,Bar 61 Restaurant,London,"['Mediterranean', 'European', 'Spanish', 'Vegetarian Friendly', 'Vegan Options', 'Gluten Free Options']",8,5,$$ - $$$,1730,"[['A Gem of a Tapas Bar!', 'Very good'], ['01/08/2018', '01/08/2018']]",/Restaurant_Review-g186338-d1316206-Reviews-Bar_61_Restaurant-London_England.html,d1316206,51.44006,-0.1257
248,0,Taste Of Nawab,London,"['Asian', 'Bangladeshi', 'Indian', 'Balti', 'Vegetarian Friendly', 'Vegan Options', 'Halal', 'Gluten Free Options']",9,5,$$ - $$$,520,"[['Amazing takeaway', 'Amazing Restaurant!'], ['01/07/2018', '12/31/2017']]",/Restaurant_Review-g186338-d813149-Reviews-Taste_Of_Nawab-London_England.html,d813149,51.60005,-0.14758
249,0,Pizza Union Aldgate,London,"['Italian', 'Pizza', 'Fast Food', 'Vegetarian Friendly', 'Vegan Options', 'Gluten Free Options']",10,5,$,369,"[['Fast and tasty', 'Great pizza'], ['01/07/2018', '01/04/2018']]",/Restaurant_Review-g186338-d12379859-Reviews-Pizza_Union_Aldgate-London_England.html,d12379859,51.51391,-0.07067
250,0,Core by Clare Smyth,London,"['French', 'Irish', 'European', 'British', 'Contemporary', 'Vegetarian Friendly', 'Gluten Free Options', 'Vegan Options']",11,5,$$$$,99,"[['Outstanding', 'Outstanding'], ['01/07/2018', '01/05/2018']]",/Restaurant_Review-g186338-d12801049-Reviews-Core_by_Clare_Smyth-London_England.html,d12801049,51.51261,-0.20312
251,0,taNgia,London,"['Moroccan', 'Mediterranean', 'Grill', 'Vegetarian Friendly', 'Vegan Options', 'Halal']",12,5,$$ - $$$,539,"[['""Delicious! Christmas meal ""', 'Delicious! Highly recommend!'], ['01/07/2018', '01/01/2018']]",/Restaurant_Review-g186338-d7391044-Reviews-TaNgia-London_England.html,d7391044,51.42414,-0.16301
252,0,Gastronhome,London,"['French', 'Gluten Free Options', 'Vegetarian Friendly', 'Vegan Options']",13,5,$$$$,572,"[['Not expected there', 'Excellent dinnee'], ['12/25/2017', '12/16/2017']]",/Restaurant_Review-g186338-d5561842-Reviews-Gastronhome-London_England.html,d5561842,51.46595,-0.15374
253,0,Fishers Fish and Chips,London,"['Seafood', 'Fast Food', 'British', 'Gluten Free Options']",14,4.5,$,647,"[['Small but great', 'The absolute best!'], ['01/06/2018', '01/02/2018']]",/Restaurant_Review-g186338-d3515065-Reviews-Fishers_Fish_and_Chips-London_England.html,d3515065,51.56482,-0.13258
254,0,Zeret Kitchen,London,"['African', 'Ethiopian', 'Vegetarian Friendly', 'Vegan Options', 'Gluten Free Options']",15,5,$$ - $$$,474,"[['Excellent Service, Delicious and Authentic...', 'Eat with your hands and try new flavours!'], ['01/08/2018', '12/27/2017']]",/Restaurant_Review-g186338-d1748899-Reviews-Zeret_Kitchen-London_England.html,d1748899,51.47864,-0.09409
255,0,Lux'Burgers,Luxembourg,"['American', 'European', 'Vegetarian Friendly']",1,4.5,$$ - $$$,280,"[['Best burger ever?', 'A rich treat'], ['01/06/2018', '01/01/2018']]",/Restaurant_Review-g190356-d10547625-Reviews-Lux_Burgers-Luxembourg_City.html,d10547625,49.60292,6.13465
256,0,Clairefontaine,Luxembourg,"['French', 'European', 'Vegetarian Friendly']",2,4.5,$$$$,543,"[['Fantastic fine dining restaurant experienc...', 'Delightful despite being in temporary prem...'], ['11/29/2017', '11/13/2017']]",/Restaurant_Review-g190356-d743811-Reviews-Clairefontaine-Luxembourg_City.html,d743811,49.60959,6.1335
257,0,Cyrano,Luxembourg,"['Italian', 'French', 'European', 'Vegetarian Friendly', 'Gluten Free Options', 'Vegan Options']",3,4.5,$$ - $$$,258,"[['Unique', 'Excellent quality / price ratio'], ['01/04/2018', '12/24/2017']]",/Restaurant_Review-g190356-d950848-Reviews-Cyrano-Luxembourg_City.html,d950848,49.60364,6.13681
258,0,Le Sud,Luxembourg,"['French', 'European', 'Vegetarian Friendly', 'Gluten Free Options']",4,4.5,$$$$,613,"[['One of the best dining experiences of my l...', 'Fantastic'], ['01/07/2018', '12/30/2017']]",/Restaurant_Review-g190356-d1416047-Reviews-Le_Sud-Luxembourg_City.html,d1416047,49.61288,6.14275
259,0,Athena Restaurant Grec,Luxembourg,"['Mediterranean', 'European', 'Greek', 'Vegetarian Friendly', 'Vegan Options', 'Gluten Free Options']",5,4.5,$$ - $$$,589,"[['Wonderful atmosphere', 'Family friendly, serving great kleftiko la...'], ['01/08/2018', '01/04/2018']]",/Restaurant_Review-g190356-d1056692-Reviews-Athena_Restaurant_Grec-Luxembourg_City.html,d1056692,49.60278,6.12626
260,0,Ambrosia,Luxembourg,"['Mediterranean', 'European', 'Greek', 'Vegetarian Friendly', 'Vegan Options']",6,4.5,$$ - $$$,291,"[['The best Greek restaurant ever tasted', 'Excellent Greek food'], ['01/01/2018', '11/27/2017']]",/Restaurant_Review-g190356-d3210265-Reviews-Ambrosia-Luxembourg_City.html,d3210265,49.60996,6.12929
261,0,Delirio Culinario,Luxembourg,"['Italian', 'Pizza', 'Mediterranean', 'European', 'Vegetarian Friendly', 'Vegan Options', 'Gluten Free Options']",7,4,$$ - $$$,652,"[['Can recommend this restaurant', 'Business dinner'], ['01/08/2018', '11/15/2017']]",/Restaurant_Review-g190356-d2358361-Reviews-Delirio_Culinario-Luxembourg_City.html,d2358361,49.61032,6.13202
262,0,La Porte du Bengale,Luxembourg,"['Indian', 'Asian', 'Vegetarian Friendly', 'Vegan Options', 'Gluten Free Options']",8,4.5,$$ - $$$,360,"[['Best Indian Cuisine in Luxembourg', 'Excellent food, quiet decor and friendly w...'], ['12/09/2017', '12/03/2017']]",/Restaurant_Review-g206535-d3851142-Reviews-La_Porte_du_Bengale-Strassen_Luxembourg_City.html,d3851142,49.61852,6.12352
263,0,Batucada,Luxembourg,"['Grill', 'Brazilian', 'Latin', 'South American', 'Vegetarian Friendly', 'Gluten Free Options']",9,4.5,$$ - $$$,350,"[['Excellent meat experience in Luxembourg', 'Dinner'], ['01/01/2018', '12/05/2017']]",/Restaurant_Review-g190356-d743797-Reviews-Batucada-Luxembourg_City.html,d743797,49.60817,6.13282
264,0,Essenza,Luxembourg,"['Bar', 'Vegetarian Friendly', 'Gluten Free Options']",10,4.5,$$ - $$$,367,"[['Very good Italian restaurant', 'Phenomenal!'], ['12/23/2017', '10/30/2017']]",/Restaurant_Review-g190356-d743791-Reviews-Essenza-Luxembourg_City.html,d743791,49.61147,6.13292
265,0,Brasserie Guillaume,Luxembourg,"['French', 'Seafood', 'European', 'Vegetarian Friendly']",11,4,$$ - $$$,607,"[['Really good', 'Good restaurant in the heart of the City'], ['12/21/2017', '11/05/2017']]",/Restaurant_Review-g190356-d2217138-Reviews-Brasserie_Guillaume-Luxembourg_City.html,d2217138,49.61085,6.13058
266,0,Bistro Podenco,Luxembourg,"['Mediterranean', 'European', 'Spanish', 'Gluten Free Options']",12,4.5,$$ - $$$,434,"[['Nice food', 'Great tapas restaurant and amazing wine'], ['01/08/2018', '10/07/2017']]",/Restaurant_Review-g190356-d7726817-Reviews-Bistro_Podenco-Luxembourg_City.html,d7726817,49.61377,6.13783
267,0,Orchidee,Luxembourg,"['Indian', 'Asian', 'Bangladeshi', 'Vegetarian Friendly', 'Vegan Options', 'Gluten Free Options']",13,4.5,$$ - $$$,407,"[['Was yummy', 'Great Restaurant, Great Service'], ['12/06/2017', '09/05/2017']]",/Restaurant_Review-g190356-d2692114-Reviews-Orchidee-Luxembourg_City.html,d2692114,49.59536,6.13426
268,0,Matelots,Luxembourg,"['Bar', 'French', 'European', 'Gastropub', 'Vegetarian Friendly', 'Vegan Options', 'Gluten Free Options']",14,4.5,$$ - $$$,153,"[['Nice place', 'Enjoyable atmosphere'], ['12/14/2017', '11/24/2017']]",/Restaurant_Review-g190356-d9739781-Reviews-Matelots-Luxembourg_City.html,d9739781,49.61044,6.12892
269,0,RESTAURANT PIZZERIA BELLA NAPOLI,Luxembourg,"['Italian', 'Pizza', 'Mediterranean', 'European', 'Vegetarian Friendly', 'Gluten Free Options']",15,4,$$ - $$$,556,"[['Nice italian restaurant', 'Bella!'], ['11/24/2017', '11/21/2017']]",/Restaurant_Review-g190356-d950864-Reviews-RESTAURANT_PIZZERIA_BELLA_NAPOLI-Luxembourg_City.html,d950864,49.60144,6.13216
270,0,Aromatic,Lyon,"['French', 'European', 'Vegetarian Friendly', 'Vegan Options', 'Gluten Free Options']",1,5,$$ - $$$,347,"[['Recommended', 'Taste and welcoming'], ['08/30/2017', '08/26/2017']]",/Restaurant_Review-g187265-d12337867-Reviews-Aromatic-Lyon_Rhone_Auvergne_Rhone_Alpes.html,d12337867,45.77759,4.83385
271,0,le Neuvieme Art,Lyon,"['French', 'European', 'Vegetarian Friendly', 'Gluten Free Options']",2,4.5,$$$$,502,"[['Wonderful Expereince', 'Great execution- excellent meal'], ['12/25/2017', '11/06/2017']]",/Restaurant_Review-g187265-d6852234-Reviews-Le_Neuvieme_Art-Lyon_Rhone_Auvergne_Rhone_Alpes.html,d6852234,45.76789,4.85637
272,0,L'Archange,Lyon,"['French', 'European']",3,4.5,$$$$,869,"[['Small Portions, not for Hungry people!', 'Fabulous'], ['11/28/2017', '11/18/2017']]",/Restaurant_Review-g187265-d2192358-Reviews-L_Archange-Lyon_Rhone_Auvergne_Rhone_Alpes.html,d2192358,45.76852,4.83047
273,0,Danton,Lyon,"['French', 'European']",4,4.5,$$ - $$$,579,"[['Just delicious', 'Exquisite meal, fantastic service!'], ['11/21/2017', '11/06/2017']]",/Restaurant_Review-g187265-d3588068-Reviews-Danton-Lyon_Rhone_Auvergne_Rhone_Alpes.html,d3588068,45.75519,4.85742
274,0,Manto,Lyon,"['French', 'Chinese', 'Asian', 'Fusion', 'Vegetarian Friendly', 'Vegan Options']",5,4.5,$$ - $$$,280,"[['Delicious, hidden gem', 'Tiny place, but big on flavor!'], ['01/08/2018', '12/09/2017']]",/Restaurant_Review-g187265-d7316961-Reviews-Manto-Lyon_Rhone_Auvergne_Rhone_Alpes.html,d7316961,45.76577,4.83104
275,0,Le Musee,Lyon,['French'],6,4.5,$$ - $$$,1235,"[['Great authentic Lyonnais Bouchon', 'Funny, authentic bouchon experience'], ['01/06/2018', '12/22/2017']]",/Restaurant_Review-g187265-d1395616-Reviews-Le_Musee-Lyon_Rhone_Auvergne_Rhone_Alpes.html,d1395616,45.76461,4.83459
276,0,L'Instant Fromage,Lyon,"['French', 'European', 'Vegetarian Friendly']",7,4.5,$$ - $$$,449,"[[""Yummy!!!!With a name like L'Instant Fromag..."", 'Wonderful ambiance. Memorable experience'], ['01/02/2018', '12/03/2017']]",/Restaurant_Review-g187265-d1999600-Reviews-L_Instant_Fromage-Lyon_Rhone_Auvergne_Rhone_Alpes.html,d1999600,45.75405,4.83169
277,0,Les Saveurs Du Bistrot,Lyon,"['French', 'European']",8,4.5,$$ - $$$,207,"[['Friendly relaxed restaurant serving excell...', 'F√™tes des Lumi√®res'], ['12/06/2017', '12/06/2017']]",/Restaurant_Review-g187265-d8478076-Reviews-Les_Saveurs_Du_Bistrot-Lyon_Rhone_Auvergne_Rhone_Alpes.html,d8478076,45.7692,4.85625
278,0,L'inaTTendu,Lyon,"['French', 'European']",9,4.5,$$ - $$$,341,"[['Great lunch!', 'Nice restaurant'], ['10/28/2017', '10/12/2017']]",/Restaurant_Review-g187265-d1331174-Reviews-L_inaTTendu-Lyon_Rhone_Auvergne_Rhone_Alpes.html,d1331174,46.38279,6.2384
279,0,L'ARGOT,Lyon,"['French', 'Steakhouse', 'European']",10,4.5,$$ - $$$,526,"[['Waou!', 'Amazing!'], ['10/29/2017', '06/09/2017']]",/Restaurant_Review-g187265-d7612326-Reviews-L_ARGOT-Lyon_Rhone_Auvergne_Rhone_Alpes.html,d7612326,45.76709,4.85601
280,0,Burgundy Lounge,Lyon,"['French', 'European']",11,4.5,$$$$,590,"[['Great atmosphere and wine list', 'Amazing Wine List'], ['12/31/2017', '12/04/2017']]",/Restaurant_Review-g187265-d6453660-Reviews-Burgundy_Lounge-Lyon_Rhone_Auvergne_Rhone_Alpes.html,d6453660,45.76274,4.83201
281,0,Le boeuf d'argent,Lyon,"['French', 'European']",12,4.5,$$$$,353,"[['Very good food, but long delay between dis...', 'I had just one night in Lyon and I took th...'], ['01/09/2018', '12/13/2017']]",/Restaurant_Review-g187265-d4993538-Reviews-Le_boeuf_d_argent-Lyon_Rhone_Auvergne_Rhone_Alpes.html,d4993538,48.19983,0.63751
282,0,Takao Takano,Lyon,"['French', 'European']",13,4.5,$$$$,592,"[['Absolutely memorable!', 'Outstanding... go!'], ['12/07/2017', '10/09/2017']]",/Restaurant_Review-g187265-d4132361-Reviews-Takao_Takano-Lyon_Rhone_Auvergne_Rhone_Alpes.html,d4132361,45.77041,4.84256
283,0,Le Poivron Bleu,Lyon,"['French', 'European']",14,4.5,$$ - $$$,389,"[['Outstanding', 'Leisurely lunch'], ['09/06/2017', '06/09/2017']]",/Restaurant_Review-g187265-d4173079-Reviews-Le_Poivron_Bleu-Lyon_Rhone_Auvergne_Rhone_Alpes.html,d4173079,45.76895,4.85631
284,0,Pani JO,Lyon,"['Italian', 'Pizza', 'Mediterranean', 'Vegetarian Friendly', 'Vegan Options']",15,4.5,$$ - $$$,355,"[['An absolute must', 'On our way to the South of France.'], ['09/29/2017', '08/04/2017']]",/Restaurant_Review-g187265-d797044-Reviews-Pani_JO-Lyon_Rhone_Auvergne_Rhone_Alpes.html,d797044,45.74984,4.84127
285,0,Cebo,Madrid,"['Mediterranean', 'European', 'Spanish', 'Contemporary', 'Vegetarian Friendly', 'Vegan Options', 'Gluten Free Options']",1,5,$$$$,352,"[['Absolutely divine tastes and flavours', 'Loved it'], ['01/09/2018', '01/07/2018']]",/Restaurant_Review-g187514-d10428302-Reviews-Cebo-Madrid.html,d10428302,40.54021,-3.80134
286,0,DSTAGE,Madrid,"['International', 'European', 'Spanish', 'Contemporary', 'Vegetarian Friendly', 'Vegan Options', 'Gluten Free Options']",2,4.5,$$$$,1724,"[['Birthday meal', 'Outstanding experience. Very relaxed and s...'], ['01/01/2018', '12/27/2017']]",/Restaurant_Review-g187514-d6884911-Reviews-DSTAGE-Madrid.html,d6884911,40.45447,-3.69385
287,0,Los Montes de Galicia,Madrid,"['International', 'Mediterranean', 'European', 'Spanish', 'Vegan Options', 'Gluten Free Options']",3,4.5,$$ - $$$,3795,"[['Wonderful lunch', 'One of Madrid‚Äôs finest.'], ['01/07/2018', '01/06/2018']]",/Restaurant_Review-g187514-d2006562-Reviews-Los_Montes_de_Galicia-Madrid.html,d2006562,40.39234,-3.66593
288,0,Astor,Madrid,"['International', 'Mediterranean', 'European', 'Fusion', 'Vegetarian Friendly', 'Vegan Options', 'Gluten Free Options']",4,5,$$ - $$$,302,"[['Small place with big flavours', 'The best dining experience in Madrid'], ['01/06/2018', '01/05/2018']]",/Restaurant_Review-g187514-d11896546-Reviews-Astor-Madrid.html,d11896546,40.41275,-3.70964
289,0,Restaurante Nuevo Horno de Santa Teresa,Madrid,"['Mediterranean', 'Spanish']",5,4.5,$$ - $$$,357,"[['Be hungry, be very hungry....', 'Good good'], ['01/08/2018', '12/27/2017']]",/Restaurant_Review-g187514-d1953725-Reviews-Restaurante_Nuevo_Horno_de_Santa_Teresa-Madrid.html,d1953725,40.4257,-3.69568
290,0,Burnout,Madrid,"['American', 'Bar', 'International', 'Healthy', 'Pub', 'Vegetarian Friendly', 'Gluten Free Options']",6,4.5,$$ - $$$,413,"[['When in Spain', 'Best Burger and Service in Madrid'], ['01/03/2018', '01/01/2018']]",/Restaurant_Review-g187514-d11953286-Reviews-Burnout-Madrid.html,d11953286,40.42082,-3.70218
291,0,Salmon Guru,Madrid,"['Bar', 'Vegetarian Friendly']",7,4.5,$$ - $$$,160,"[['Best cocktails evaaah!', 'Great'], ['01/03/2018', '12/29/2017']]",/Restaurant_Review-g187514-d10731641-Reviews-Salmon_Guru-Madrid.html,d10731641,40.41486,-3.69956
292,0,Toga,Madrid,"['Mediterranean', 'European', 'Spanish', 'Vegetarian Friendly', 'Vegan Options', 'Gluten Free Options']",8,4.5,$$ - $$$,377,"[['Well balanced', 'Fantastic food and drink combined with a h...'], ['01/08/2018', '01/05/2018']]",/Restaurant_Review-g187514-d11955452-Reviews-Toga-Madrid.html,d11955452,40.41112,-3.70667
293,0,Maitia,Madrid,"['Spanish', 'European', 'Vegetarian Friendly', 'Vegan Options', 'Gluten Free Options']",9,4.5,$$$$,690,"[['Top Notch!', 'Excellent experience!'], ['12/29/2017', '11/27/2017']]",/Restaurant_Review-g187514-d3948218-Reviews-Maitia-Madrid.html,d3948218,40.41386,-3.71998
294,0,Grama Lounge,Madrid,"['Latin', 'Bar', 'Venezuelan', 'Vegetarian Friendly', 'Vegan Options', 'Gluten Free Options']",10,4.5,$$ - $$$,337,"[['Capit√°n Jack lives here!', 'Great Latin American food!'], ['01/07/2018', '12/31/2017']]",/Restaurant_Review-g187514-d12216862-Reviews-Grama_Lounge-Madrid.html,d12216862,40.41555,-3.70179
